$GPGSV,4,4,13,29,07,341,*41
$GPRMC,070225.000,A,5325.7251,N,01433.8091,E,0.16,51.15,010612,,,A*5A
$GPVTG,51.15,T,,M,0.16,N,0.30,K,A*09
$GPGGA,070226.000,5325.7251,N,01433.8090,E,1,7,1.06,47.5,M,41.8,M,,*62
$GPGSA,A,3,07,23,04,05,20,08,10,,,,,,1.34,1.06,0.82*05
$GPGSV,4,1,13,13,77,066,21,10,71,275,20,07,54,173,43,23,42,077,27*7C
$GPGSV,4,2,13,02,39,279,,04,37,226,26,39,27,167,,16,23,061,*75
$GPGSV,4,3,13,08,19,195,16,05,17,302,23,30,15,035,,20,11,132,23*77
$GPGSV,4,4,13,29,07,341,*41
$GPRMC,070226.000,A,5325.7251,N,01433.8090,E,0.29,21.61,010612,,,A*50
$GPVTG,21.61,T,,M,0.29,N,0.54,K,A*03
$GPGGA,070227.000,5325.7252,N,01433.8089,E,1,6,1.18,47.5,M,41.8,M,,*66
$GPGSA,A,3,07,23,04,05,08,10,,,,,,,1.48,1.18,0.88*09
$GPGSV,4,1,13,13,77,066,21,10,71,275,21,07,54,173,43,23,42,077,28*72
$GPGSV,4,2,13,02,39,279,,04,37,226,26,39,27,167,,16,23,061,*75
$GPGSV,4,3,13,08,19,195,16,05,17,302,22,30,15,035,,20,11,132,23*76
$GPGSV,4,4,13,29,07,341,*41
$GPRMC,070227.000,A,5325.7252,N,01433.8089,E,0.36,350.81,010612,,,A*6F
$GPVTG,350.81,T,,M,0.36,N,0.66,K,A*37
$GPGGA,070228.000,5325.7252,N,01433.8088,E,1,6,1.18,47.5,M,41.8,M,,*68
$GPGSA,A,3,07,23,04,05,08,10,,,,,,,1.48,1.18,0.88*09
$GPGSV,4,1,13,13,77,066,22,10,71,275,22,07,54,173,43,23,42,077,28*72
$GPGSV,4,2,13,02,39,279,,04,37,226,25,39,27,167,,16,23,061,*76
$GPGSV,4,3,13,08,19,195,15,05,17,302,22,30,15,035,,20,11,132,23*75
$GPGSV,4,4,13,29,07,341,*41
$GPRMC,070228.000,A,5325.7252,N,01433.8088,E,0.41,323.59,010612,,,A*60
$GPVTG,323.59,T,,M,0.41,N,0.75,K,A*34
$GPGGA,070229.000,5325.7253,N,01433.8086,E,1,6,1.18,47.5,M,41.8,M,,*66
$GPGSA,A,3,07,23,04,05,08,10,,,,,,,1.48,1.18,0.88*09
$GPGSV,4,1,13,13,77,066,22,10,71,275,23,07,54,173,43,23,42,077,29*72
$GPGSV,4,2,13,02,39,279,,04,37,226,26,39,27,167,,16,23,061,*75
$GPGSV,4,3,13,08,19,195,15,05,17,302,22,30,15,035,,20,10,132,23*74
$GPGSV,4,4,13,29,07,341,*41
$GPRMC,070229.000,A,5325.7253,N,01433.8086,E,0.37,309.21,010612,,,A*68
$GPVTG,309.21,T,,M,0.37,N,0.69,K,A*3F
$GPGGA,070230.000,5325.7253,N,01433.8084,E,1,6,1.18,47.5,M,41.8,M,,*6C
$GPGSA,A,3,07,23,04,05,08,10,,,,,,,1.48,1.18,0.88*09
$GPGSV,4,1,13,13,77,066,23,10,71,275,24,07,54,173,43,23,42,077,29*74
$GPGSV,4,2,13,02,39,279,,04,37,226,26,16,23,061,,33,22,215,*7C
$GPGSV,4,3,13,08,19,195,15,05,17,302,22,30,15,035,,20,10,132,23*74
$GPGSV,4,4,13,29,07,341,*41
$GPRMC,070230.000,A,5325.7253,N,01433.8084,E,0.26,308.64,010612,,,A*62
$GPVTG,308.64,T,,M,0.26,N,0.48,K,A*3C
$GPGGA,070231.000,5325.7253,N,01433.8083,E,1,7,1.15,47.5,M,41.8,M,,*66
$GPGSA,A,3,07,23,13,04,05,08,10,,,,,,1.44,1.15,0.86*04
$GPGSV,4,1,13,13,77,066,24,10,71,275,24,07,54,173,43,23,42,077,30*7B
$GPGSV,4,2,13,02,39,279,,04,37,226,25,16,23,061,,33,22,215,*7F
$GPGSV,4,3,13,08,19,195,15,05,17,302,22,30,15,035,,20,10,132,23*74
$GPGSV,4,4,13,29,07,341,*41
$GPRMC,070231.000,A,5325.7253,N,01433.8083,E,0.27,318.26,010612,,,A*62
$GPVTG,318.26,T,,M,0.27,N,0.50,K,A*33
$GPGGA,070232.000,5325.7254,N,01433.8083,E,1,6,1.18,47.5,M,41.8,M,,*6E
$GPGSA,A,3,07,23,04,05,08,10,,,,,,,1.48,1.18,0.88*09
$GPGSV,4,1,13,13,77,066,24,10,71,275,25,07,54,173,43,23,42,077,30*7A
$GPGSV,4,2,13,02,39,279,,04,37,226,25,16,23,061,,33,22,215,*7F
$GPGSV,4,3,13,08,19,195,15,05,17,302,22,30,15,035,,20,10,132,23*74
$GPGSV,4,4,13,29,07,341,*41
$GPRMC,070232.000,A,5325.7254,N,01433.8083,E,0.16,318.26,010612,,,A*64
$GPVTG,318.26,T,,M,0.16,N,0.30,K,A*37
$GPGGA,070233.000,5325.7254,N,01433.8082,E,1,5,1.38,47.5,M,41.8,M,,*6F
$GPGSA,A,3,07,23,04,05,10,,,,,,,,1.66,1.38,0.93*05
$GPGSV,4,1,13,13,77,066,24,10,71,275,25,07,54,173,43,23,42,077,30*7A
$GPGSV,4,2,13,02,39,279,,04,37,226,25,16,23,061,,33,22,215,*7F
$GPGSV,4,3,13,08,19,195,,05,17,302,23,30,15,035,,20,10,132,23*71
$GPGSV,4,4,13,29,07,341,*41
$GPRMC,070233.000,A,5325.7254,N,01433.8082,E,0.19,318.26,010612,,,A*6B
$GPVTG,318.26,T,,M,0.19,N,0.35,K,A*3D
$GPGGA,070234.000,5325.7254,N,01433.8082,E,1,5,1.38,47.5,M,41.8,M,,*68
$GPGSA,A,3,07,23,04,05,10,,,,,,,,1.66,1.38,0.93*05
$GPGSV,4,1,13,13,77,066,24,10,71,275,26,07,54,173,43,23,42,077,30*79
$GPGSV,4,2,13,02,39,279,,04,37,226,24,16,23,061,,33,22,215,*7E
$GPGSV,4,3,13,08,19,195,,05,17,302,23,30,15,035,,20,10,132,22*70
$GPGSV,4,4,13,29,07,341,*41
$GPRMC,070234.000,A,5325.7254,N,01433.8082,E,0.18,318.26,010612,,,A*6D
$GPVTG,318.26,T,,M,0.18,N,0.34,K,A*3D
$GPGGA,070235.000,5325.7254,N,01433.8081,E,1,6,1.38,47.5,M,41.8,M,,*69
$GPGSA,A,3,07,23,04,05,08,10,,,,,,,1.66,1.38,0.93*0D
$GPGSV,4,1,13,13,77,066,23,10,71,275,26,07,54,173,43,23,42,077,30*7E
$GPGSV,4,2,13,02,39,279,,04,37,226,24,16,23,061,,33,22,215,*7E
$GPGSV,4,3,13,08,19,195,15,05,17,302,23,30,15,035,,20,10,132,23*75
$GPGSV,4,4,13,29,07,341,*41
$GPRMC,070235.000,A,5325.7254,N,01433.8081,E,0.17,318.26,010612,,,A*60
$GPVTG,318.26,T,,M,0.17,N,0.31,K,A*37
$GPGGA,070236.000,5325.7253,N,01433.8080,E,1,5,1.38,47.5,M,41.8,M,,*6F
$GPGSA,A,3,07,23,04,05,10,,,,,,,,1.66,1.38,0.93*05
$GPGSV,4,1,13,13,77,066,23,10,71,275,27,07,54,173,43,23,42,077,30*7F
$GPGSV,4,2,13,02,39,279,,04,37,226,24,16,23,061,,33,22,215,*7E
$GPGSV,4,3,13,08,19,195,,05,17,302,23,30,15,035,,20,10,132,23*71
$GPGSV,4,4,13,29,07,341,*41
$GPRMC,070236.000,A,5325.7253,N,01433.8080,E,0.25,261.07,010612,,,A*68
$GPVTG,261.07,T,,M,0.25,N,0.47,K,A*3B
$GPGGA,070237.000,5325.7253,N,01433.8080,E,1,5,1.38,47.5,M,41.8,M,,*6E
$GPGSA,A,3,07,23,04,05,10,,,,,,,,1.66,1.38,0.93*05
$GPGSV,4,1,13,13,77,066,23,10,71,275,27,07,54,173,43,23,42,077,31*7E
$GPGSV,4,2,13,02,39,279,,04,37,226,24,16,23,061,,33,22,215,*7E
$GPGSV,4,3,13,08,19,195,,05,17,302,23,30,15,035,,20,10,132,23*71
$GPGSV,4,4,13,29,07,341,*41
$GPRMC,070237.000,A,5325.7253,N,01433.8080,E,0.23,244.95,010612,,,A*63
$GPVTG,244.95,T,,M,0.23,N,0.43,K,A*35
$GPGGA,070238.000,5325.7252,N,01433.8079,E,1,6,1.37,47.5,M,41.8,M,,*6A
$GPGSA,A,3,07,23,04,05,08,10,,,,,,,1.66,1.37,0.93*02
$GPGSV,4,1,13,13,77,066,23,10,71,275,28,07,54,173,43,23,42,077,31*71
$GPGSV,4,2,13,02,39,279,,04,37,226,24,16,23,061,,33,22,215,*7E
$GPGSV,4,3,13,08,19,195,15,05,17,302,23,30,15,035,,20,10,132,23*75
$GPGSV,4,4,13,29,07,341,*41
$GPRMC,070238.000,A,5325.7252,N,01433.8079,E,0.25,233.76,010612,,,A*60
$GPVTG,233.76,T,,M,0.25,N,0.46,K,A*3B
$GPGGA,070239.000,5325.7252,N,01433.8078,E,1,6,1.38,47.5,M,41.8,M,,*65
$GPGSA,A,3,07,23,04,05,08,10,,,,,,,1.66,1.38,0.93*0D
$GPGSV,4,1,13,13,77,066,23,10,71,275,28,07,54,173,43,23,42,077,31*71
$GPGSV,4,2,13,02,39,279,,04,37,226,24,16,23,061,,33,22,215,*7E
$GPGSV,4,3,13,08,19,195,15,05,17,302,22,30,15,035,,20,10,132,23*74
$GPGSV,4,4,13,29,07,341,*41
$GPRMC,070239.000,A,5325.7252,N,01433.8078,E,0.31,215.06,010612,,,A*66
$GPVTG,215.06,T,,M,0.31,N,0.57,K,A*3D
$GPGGA,070240.000,5325.7251,N,01433.8078,E,1,6,1.38,47.5,M,41.8,M,,*68
$GPGSA,A,3,07,23,04,05,08,10,,,,,,,1.66,1.38,0.93*0D
$GPGSV,4,1,13,13,77,066,23,10,71,275,28,07,54,173,43,23,42,077,31*71
$GPGSV,4,2,13,02,39,279,,04,37,226,23,16,23,061,,33,22,215,*79
$GPGSV,4,3,13,08,19,195,15,05,17,302,22,30,15,035,,20,10,132,23*74
$GPGSV,4,4,13,29,07,341,*41
$GPRMC,070240.000,A,5325.7251,N,01433.8078,E,0.43,188.08,010612,,,A*67
$GPVTG,188.08,T,,M,0.43,N,0.79,K,A*3D
$GPGGA,070241.000,5325.7250,N,01433.8079,E,1,6,1.38,47.5,M,41.8,M,,*69
$GPGSA,A,3,07,23,04,05,08,10,,,,,,,1.66,1.38,0.93*0D
$GPGSV,4,1,13,13,77,066,23,10,71,275,28,07,54,173,43,23,42,077,31*71
$GPGSV,4,2,13,02,39,279,,04,37,226,23,16,23,061,,33,22,215,*79
$GPGSV,4,3,13,08,19,195,14,05,17,302,22,30,15,035,,20,10,132,23*75
$GPGSV,4,4,13,29,07,341,*41
$GPRMC,070241.000,A,5325.7250,N,01433.8079,E,0.45,172.96,010612,,,A*62
$GPVTG,172.96,T,,M,0.45,N,0.82,K,A*3D
$GPGGA,070242.000,5325.7249,N,01433.8080,E,1,5,1.38,47.5,M,41.8,M,,*67
$GPGSA,A,3,07,23,04,05,10,,,,,,,,1.66,1.38,0.93*05
$GPGSV,4,1,13,13,77,066,23,10,71,275,28,07,54,173,43,23,42,077,31*71
$GPGSV,4,2,13,02,39,279,,04,37,226,23,16,23,061,,33,22,215,*79
$GPGSV,4,3,13,08,19,195,,05,17,302,22,30,15,035,,20,10,132,23*70
$GPGSV,4,4,13,29,07,341,*41
$GPRMC,070242.000,A,5325.7249,N,01433.8080,E,0.37,168.58,010612,,,A*63
$GPVTG,168.58,T,,M,0.37,N,0.69,K,A*34
$GPGGA,070243.000,5325.7248,N,01433.8081,E,1,5,1.38,47.5,M,41.8,M,,*66
$GPGSA,A,2,07,23,04,05,10,,,,,,,,1.66,1.38,0.93*04
$GPGSV,4,1,13,13,77,066,23,10,71,275,28,07,54,173,43,23,42,077,32*72
$GPGSV,4,2,13,02,39,279,,04,37,226,23,16,23,061,,33,22,215,*79
$GPGSV,4,3,13,08,19,195,,05,17,302,22,30,15,035,,20,10,132,23*70
$GPGSV,4,4,13,29,07,341,*41
$GPRMC,070243.000,A,5325.7248,N,01433.8081,E,0.39,170.49,010612,,,A*65
$GPVTG,170.49,T,,M,0.39,N,0.73,K,A*38
$GPGGA,070244.000,5325.7246,N,01433.8081,E,1,6,1.34,47.5,M,41.8,M,,*60
$GPGSA,A,3,07,23,13,04,05,10,,,,,,,1.62,1.34,0.91*0D
$GPGSV,4,1,13,13,77,066,24,10,71,275,29,07,54,173,43,23,42,077,32*74
$GPGSV,4,2,13,02,39,279,,04,37,226,24,16,23,061,,33,22,215,*7E
$GPGSV,4,3,13,08,19,195,,05,17,302,22,30,15,035,,20,10,132,23*70
$GPGSV,4,4,13,29,07,341,*41
$GPRMC,070244.000,A,5325.7246,N,01433.8081,E,0.45,171.07,010612,,,A*6C
$GPVTG,171.07,T,,M,0.45,N,0.83,K,A*37
$GPGGA,070245.000,5325.7245,N,01433.8081,E,1,6,1.34,47.5,M,41.8,M,,*62
$GPGSA,A,3,07,23,13,04,05,10,,,,,,,1.62,1.34,0.91*0D
$GPGSV,4,1,13,13,77,066,24,10,71,275,29,07,54,173,43,23,42,077,32*74
$GPGSV,4,2,13,02,39,279,,04,37,226,24,16,23,061,,33,22,215,*7E
$GPGSV,4,3,13,08,19,195,,05,17,302,22,30,15,035,,20,10,132,23*70
$GPGSV,4,4,13,29,07,341,*41
$GPRMC,070245.000,A,5325.7245,N,01433.8081,E,0.50,170.05,010612,,,A*69
$GPVTG,170.05,T,,M,0.50,N,0.93,K,A*31
$GPGGA,070246.000,5325.7244,N,01433.8082,E,1,7,1.34,47.5,M,41.8,M,,*62
$GPGSA,A,3,07,23,13,04,05,08,10,,,,,,1.62,1.34,0.91*05
$GPGSV,4,1,13,13,77,066,24,10,71,275,30,07,54,173,43,23,42,077,32*7C
$GPGSV,4,2,13,02,39,279,,04,37,226,24,16,23,061,,33,22,215,*7E
$GPGSV,4,3,13,08,19,195,16,05,17,302,22,30,15,035,,20,10,132,23*77
$GPGSV,4,4,13,29,07,341,*41
$GPRMC,070246.000,A,5325.7244,N,01433.8082,E,0.54,170.00,010612,,,A*69
$GPVTG,170.00,T,,M,0.54,N,1.00,K,A*3B
$GPGGA,070247.000,5325.7242,N,01433.8082,E,1,6,1.38,47.5,M,41.8,M,,*68
$GPGSA,A,3,07,23,04,05,08,10,,,,,,,1.66,1.38,0.93*0D
$GPGSV,4,1,13,13,77,066,24,10,71,275,30,07,54,173,43,23,42,077,32*7C
$GPGSV,4,2,13,02,39,279,,04,37,226,24,16,23,061,,33,22,215,*7E
$GPGSV,4,3,13,08,19,195,15,05,17,302,22,30,15,035,,20,10,132,23*74
$GPGSV,4,4,13,29,07,341,*41
$GPRMC,070247.000,A,5325.7242,N,01433.8082,E,0.57,170.43,010612,,,A*6A
$GPVTG,170.43,T,,M,0.57,N,1.05,K,A*3A
$GPGGA,070248.000,5325.7241,N,01433.8083,E,1,6,1.38,47.5,M,41.8,M,,*65
$GPGSA,A,3,07,23,04,05,08,10,,,,,,,1.66,1.38,0.93*0D
$GPGSV,4,1,13,13,77,066,24,10,71,275,30,07,54,173,43,23,42,077,32*7C
$GPGSV,4,2,13,02,39,279,,04,37,226,24,16,23,061,,33,22,215,*7E
$GPGSV,4,3,13,08,19,195,15,05,17,302,22,30,15,035,,20,10,132,23*74
$GPGSV,4,4,13,29,07,341,*41
$GPRMC,070248.000,A,5325.7241,N,01433.8083,E,0.36,172.44,010612,,,A*65
$GPVTG,172.44,T,,M,0.36,N,0.66,K,A*3C
$GPGGA,070249.000,5325.7240,N,01433.8083,E,1,7,1.34,47.5,M,41.8,M,,*68
$GPGSA,A,3,07,23,13,04,05,08,10,,,,,,1.62,1.34,0.91*05
$GPGSV,4,1,13,13,77,066,24,10,71,275,30,07,54,173,43,23,42,077,32*7C
$GPGSV,4,2,13,02,39,279,,04,37,226,24,16,23,061,,33,22,215,*7E
$GPGSV,4,3,13,08,19,195,15,05,17,302,22,30,15,035,,20,10,132,23*74
$GPGSV,4,4,13,29,07,341,*41
$GPRMC,070249.000,A,5325.7240,N,01433.8083,E,0.53,173.46,010612,,,A*65
$GPVTG,173.46,T,,M,0.53,N,0.98,K,A*3D
$GPGGA,070250.000,5325.7238,N,01433.8083,E,1,6,1.38,47.5,M,41.8,M,,*62
$GPGSA,A,3,07,23,04,05,08,10,,,,,,,1.66,1.38,0.93*0D
$GPGSV,4,1,13,13,77,066,24,10,71,275,30,07,54,173,43,23,42,077,33*7D
$GPGSV,4,2,13,02,39,279,,04,37,226,24,16,23,061,,33,22,215,*7E
$GPGSV,4,3,13,08,19,195,15,05,17,302,22,30,15,035,,20,10,132,23*74
$GPGSV,4,4,13,29,07,341,*41
$GPRMC,070250.000,A,5325.7238,N,01433.8083,E,0.56,167.83,010612,,,A*6B
$GPVTG,167.83,T,,M,0.56,N,1.03,K,A*37
$GPGGA,070251.000,5325.7237,N,01433.8084,E,1,6,1.38,47.5,M,41.8,M,,*6B
$GPGSA,A,3,07,23,04,05,08,10,,,,,,,1.66,1.38,0.93*0D
$GPGSV,4,1,13,13,77,066,24,10,71,275,30,07,54,173,43,23,42,077,33*7D
$GPGSV,4,2,13,02,39,279,,04,37,226,24,16,23,061,,33,22,215,*7E
$GPGSV,4,3,13,08,19,195,16,05,17,302,21,30,15,035,,20,10,132,23*74
$GPGSV,4,4,13,29,07,341,*41
$GPRMC,070251.000,A,5325.7237,N,01433.8084,E,0.58,164.40,010612,,,A*60
$GPVTG,164.40,T,,M,0.58,N,1.07,K,A*31
$GPGGA,070252.000,5325.7235,N,01433.8085,E,1,7,1.34,47.5,M,41.8,M,,*66
$GPGSA,A,3,07,23,13,04,05,08,10,,,,,,1.62,1.34,0.91*05
$GPGSV,4,1,13,13,77,066,24,10,71,275,30,07,54,173,43,23,42,077,33*7D
$GPGSV,4,2,13,02,39,279,,04,37,226,24,16,23,061,,33,22,215,*7E
$GPGSV,4,3,13,08,19,195,16,05,17,302,21,30,15,035,,20,10,132,23*74
$GPGSV,4,4,13,29,07,341,*41
$GPRMC,070252.000,A,5325.7235,N,01433.8085,E,0.67,160.36,010612,,,A*69
$GPVTG,160.36,T,,M,0.67,N,1.23,K,A*3E
$GPGGA,070253.000,5325.7228,N,01433.8089,E,1,7,1.34,47.0,M,41.8,M,,*62
$GPGSA,A,3,07,23,13,04,05,08,10,,,,,,1.62,1.34,0.91*05
$GPGSV,4,1,13,13,77,066,25,10,71,275,30,07,54,173,43,23,42,077,33*7C
$GPGSV,4,2,13,02,39,279,,04,37,226,25,16,23,061,,33,22,215,*7F
$GPGSV,4,3,13,08,19,195,16,05,17,302,21,30,15,035,,20,10,132,23*74
$GPGSV,4,4,13,29,07,341,*41
$GPRMC,070253.000,A,5325.7228,N,01433.8089,E,0.77,158.54,010612,,,A*66
$GPVTG,158.54,T,,M,0.77,N,1.43,K,A*36
$GPGGA,070254.000,5325.7222,N,01433.8093,E,1,7,1.34,46.7,M,41.8,M,,*62
$GPGSA,A,3,07,23,13,04,05,08,10,,,,,,1.62,1.34,0.91*05
$GPGSV,4,1,13,13,76,066,25,10,71,275,30,07,54,173,43,23,42,077,33*7D
$GPGSV,4,2,13,02,39,279,,04,37,226,25,16,23,061,,33,22,215,*7F
$GPGSV,4,3,13,08,19,195,16,05,17,302,21,30,15,035,,20,10,132,22*75
$GPGSV,4,4,13,29,07,341,*41
$GPRMC,070254.000,A,5325.7222,N,01433.8093,E,0.82,157.61,010612,,,A*63
$GPVTG,157.61,T,,M,0.82,N,1.51,K,A*36
$GPGGA,070255.000,5325.7216,N,01433.8098,E,1,7,1.34,46.3,M,41.8,M,,*6B
$GPGSA,A,3,07,23,13,04,05,08,10,,,,,,1.62,1.34,0.91*05
$GPGSV,4,1,13,13,76,066,26,10,71,275,30,07,54,173,43,23,42,077,33*7E
$GPGSV,4,2,13,02,39,279,,04,37,226,25,16,23,061,,33,22,215,*7F
$GPGSV,4,3,13,08,19,195,16,05,17,302,21,30,15,035,,20,10,132,22*75
$GPGSV,4,4,13,29,07,341,*41
$GPRMC,070255.000,A,5325.7216,N,01433.8098,E,0.80,157.14,010612,,,A*6E
$GPVTG,157.14,T,,M,0.80,N,1.49,K,A*3F
$GPGGA,070256.000,5325.7210,N,01433.8103,E,1,7,1.34,45.9,M,41.8,M,,*64
$GPGSA,A,3,07,23,13,04,05,08,10,,,,,,1.62,1.34,0.91*05
$GPGSV,4,1,13,13,76,066,26,10,71,275,30,07,54,173,43,23,42,077,33*7E
$GPGSV,4,2,13,02,39,279,,04,37,226,25,16,23,061,,33,22,215,*7F
$GPGSV,4,3,13,08,19,195,16,05,17,302,21,30,15,035,,20,10,132,22*75
$GPGSV,4,4,13,29,07,341,*41
$GPRMC,070256.000,A,5325.7210,N,01433.8103,E,0.77,156.72,010612,,,A*61
$GPVTG,156.72,T,,M,0.77,N,1.43,K,A*3C
$GPGGA,070257.000,5325.7205,N,01433.8111,E,1,7,1.34,45.4,M,41.8,M,,*6F
$GPGSA,A,3,07,23,13,04,05,08,10,,,,,,1.62,1.34,0.91*05
$GPGSV,4,1,13,13,76,066,26,10,71,275,30,07,54,173,43,23,42,077,33*7E
$GPGSV,4,2,13,02,39,279,,04,37,226,25,16,23,061,,33,22,215,*7F
$GPGSV,4,3,13,08,19,195,16,05,17,302,21,30,15,035,,20,10,132,22*75
$GPGSV,4,4,13,29,07,341,*41
$GPRMC,070257.000,A,5325.7205,N,01433.8111,E,0.78,153.85,010612,,,A*65
$GPVTG,153.85,T,,M,0.78,N,1.44,K,A*39
$GPGGA,070258.000,5325.7202,N,01433.8115,E,1,7,1.34,45.1,M,41.8,M,,*66
$GPGSA,A,3,07,23,13,04,05,08,10,,,,,,1.62,1.34,0.91*05
$GPGSV,4,1,13,13,76,066,26,10,71,275,30,07,54,173,43,23,42,077,33*7E
$GPGSV,4,2,13,02,39,279,,04,37,226,25,16,23,061,,33,22,215,*7F
$GPGSV,4,3,13,08,19,195,16,05,17,302,21,30,15,035,,20,10,132,22*75
$GPGSV,4,4,13,29,07,341,*41
$GPRMC,070258.000,A,5325.7202,N,01433.8115,E,0.76,152.87,010612,,,A*64
$GPVTG,152.87,T,,M,0.76,N,1.41,K,A*31
$GPGGA,070259.000,5325.7197,N,01433.8120,E,1,7,1.34,44.7,M,41.8,M,,*69
$GPGSA,A,3,07,23,13,04,05,08,10,,,,,,1.62,1.34,0.91*05
$GPGSV,4,1,13,13,76,066,26,10,71,275,30,07,54,173,43,23,42,077,33*7E
$GPGSV,4,2,13,02,39,279,,04,37,226,25,16,23,061,,08,19,195,16*73
$GPGSV,4,3,13,05,17,302,21,30,15,035,,44,13,123,,20,10,132,22*7D
$GPGSV,4,4,13,29,07,341,*41
$GPRMC,070259.000,A,5325.7197,N,01433.8120,E,0.67,151.76,010612,,,A*61
$GPVTG,151.76,T,,M,0.67,N,1.23,K,A*38
$GPGGA,070300.000,5325.7193,N,01433.8124,E,1,7,1.34,44.3,M,41.8,M,,*60
$GPGSA,A,3,07,23,13,04,05,08,10,,,,,,1.62,1.34,0.91*05
$GPGSV,4,1,13,13,76,066,26,10,71,275,30,07,54,173,43,23,42,077,33*7E
$GPGSV,4,2,13,02,39,279,,04,37,226,25,16,23,061,,08,19,195,16*73
$GPGSV,4,3,13,05,17,302,21,30,15,035,,44,13,123,,20,10,132,22*7D
$GPGSV,4,4,13,29,07,341,*41
$GPRMC,070300.000,A,5325.7193,N,01433.8124,E,0.61,150.72,010612,,,A*6F
$GPVTG,150.72,T,,M,0.61,N,1.13,K,A*38
$GPGGA,070301.000,5325.7190,N,01433.8128,E,1,7,1.34,44.0,M,41.8,M,,*6D
$GPGSA,A,3,07,23,13,04,05,08,10,,,,,,1.62,1.34,0.91*05
$GPGSV,4,1,13,13,76,066,26,10,71,275,30,07,54,173,43,23,42,077,33*7E
$GPGSV,4,2,13,02,39,279,,04,37,226,25,16,23,061,,08,19,195,16*73
$GPGSV,4,3,13,05,17,302,21,30,15,035,,44,13,123,,20,10,132,22*7D
$GPGSV,4,4,13,29,07,341,*41
$GPRMC,070301.000,A,5325.7190,N,01433.8128,E,0.64,149.07,010612,,,A*6E
$GPVTG,149.07,T,,M,0.64,N,1.19,K,A*3D
$GPGGA,070302.000,5325.7186,N,01433.8130,E,1,7,1.34,43.6,M,41.8,M,,*61
$GPGSA,A,3,07,23,13,04,05,08,10,,,,,,1.62,1.34,0.91*05
$GPGSV,4,1,13,13,76,066,26,10,71,275,30,07,54,173,43,23,42,077,33*7E
$GPGSV,4,2,13,02,39,279,,04,37,226,25,16,23,061,,08,19,195,16*73
$GPGSV,4,3,13,05,17,302,21,30,15,035,,44,13,123,,20,10,132,22*7D
$GPGSV,4,4,13,29,07,341,*41
$GPRMC,070302.000,A,5325.7186,N,01433.8130,E,0.65,148.18,010612,,,A*6D
$GPVTG,148.18,T,,M,0.65,N,1.21,K,A*38
$GPGGA,070303.000,5325.7182,N,01433.8135,E,1,7,1.34,43.0,M,41.8,M,,*67
$GPGSA,A,3,07,23,13,04,05,08,10,,,,,,1.62,1.34,0.91*05
$GPGSV,4,1,13,13,76,066,27,10,71,275,30,07,54,173,43,23,42,077,33*7F
$GPGSV,4,2,13,02,39,279,,04,37,226,25,16,23,061,,08,19,195,16*73
$GPGSV,4,3,13,05,17,302,21,30,15,035,,44,13,123,,20,10,132,22*7D
$GPGSV,4,4,13,29,07,341,*41
$GPRMC,070303.000,A,5325.7182,N,01433.8135,E,0.86,148.12,010612,,,A*6A
$GPVTG,148.12,T,,M,0.86,N,1.60,K,A*3A
$GPGGA,070304.000,5325.7180,N,01433.8137,E,1,7,1.34,42.7,M,41.8,M,,*66
$GPGSA,A,3,07,23,13,04,05,08,10,,,,,,1.62,1.34,0.91*05
$GPGSV,4,1,13,13,76,066,27,10,71,275,30,07,54,173,43,23,42,077,33*7F
$GPGSV,4,2,13,02,39,279,,04,37,226,25,16,23,061,,08,19,195,16*73
$GPGSV,4,3,13,05,17,302,21,30,15,035,,44,13,123,,20,10,132,22*7D
$GPGSV,4,4,13,29,07,341,*41
$GPRMC,070304.000,A,5325.7180,N,01433.8137,E,0.71,147.66,010612,,,A*69
$GPVTG,147.66,T,,M,0.71,N,1.31,K,A*3A
$GPGGA,070305.000,5325.7176,N,01433.8144,E,1,7,1.15,42.3,M,41.8,M,,*6D
$GPGSA,A,3,07,23,13,04,05,08,10,,,,,,1.44,1.15,0.86*04
$GPGSV,4,1,13,13,76,066,27,10,71,275,30,07,54,173,43,23,42,077,33*7F
$GPGSV,4,2,13,02,39,279,,04,37,226,25,16,23,061,,08,19,195,16*73
$GPGSV,4,3,13,05,17,302,21,30,15,035,,44,13,123,,20,10,132,21*7E
$GPGSV,4,4,13,29,07,341,*41
$GPRMC,070305.000,A,5325.7176,N,01433.8144,E,0.62,145.62,010612,,,A*61
$GPVTG,145.62,T,,M,0.62,N,1.15,K,A*38
$GPGGA,070306.000,5325.7170,N,01433.8144,E,1,7,1.15,42.1,M,41.8,M,,*6A
$GPGSA,A,3,07,23,13,04,05,08,10,,,,,,1.44,1.15,0.86*04
$GPGSV,4,1,13,13,76,066,27,10,71,275,30,07,54,173,43,23,42,077,33*7F
$GPGSV,4,2,13,02,39,279,,04,37,226,25,16,23,061,,08,19,195,16*73
$GPGSV,4,3,13,05,17,302,21,30,15,035,,44,13,123,,20,10,132,21*7E
$GPGSV,4,4,13,29,07,341,*41
$GPRMC,070306.000,A,5325.7170,N,01433.8144,E,0.71,144.55,010612,,,A*63
$GPVTG,144.55,T,,M,0.71,N,1.31,K,A*39
$GPGGA,070307.000,5325.7169,N,01433.8145,E,1,7,1.15,41.9,M,41.8,M,,*69
$GPGSA,A,3,07,23,13,04,05,08,10,,,,,,1.44,1.15,0.86*04
$GPGSV,4,1,13,13,76,066,27,10,71,275,30,07,54,173,43,23,42,077,33*7F
$GPGSV,4,2,13,02,39,279,19,04,37,226,25,16,23,061,,08,19,195,16*7B
$GPGSV,4,3,13,05,17,302,21,30,15,035,,44,13,123,,20,10,132,21*7E
$GPGSV,4,4,13,29,07,341,*41
$GPRMC,070307.000,A,5325.7169,N,01433.8145,E,0.68,143.11,010612,,,A*64
$GPVTG,143.11,T,,M,0.68,N,1.27,K,A*31
$GPGGA,070308.000,5325.7168,N,01433.8147,E,1,7,1.15,41.7,M,41.8,M,,*6B
$GPGSA,A,3,07,23,13,04,05,08,10,,,,,,1.44,1.15,0.86*04
$GPGSV,4,1,13,13,76,066,27,10,71,275,30,07,54,173,43,23,42,077,33*7F
$GPGSV,4,2,13,02,39,279,19,04,37,226,25,16,23,061,,08,19,195,16*7B
$GPGSV,4,3,13,05,17,302,21,30,15,035,,44,13,123,,20,10,132,21*7E
$GPGSV,4,4,13,29,07,341,*41
$GPRMC,070308.000,A,5325.7168,N,01433.8147,E,0.72,142.14,010612,,,A*67
$GPVTG,142.14,T,,M,0.72,N,1.33,K,A*3B
$GPGGA,070309.000,5325.7164,N,01433.8147,E,1,8,1.03,41.4,M,41.8,M,,*6D
$GPGSA,A,3,07,23,13,04,05,20,08,10,,,,,1.30,1.03,0.79*02
$GPGSV,4,1,13,13,76,066,28,10,71,275,30,07,54,173,43,23,42,077,33*70
$GPGSV,4,2,13,02,39,279,19,04,37,226,25,16,23,061,,08,19,195,16*7B
$GPGSV,4,3,13,05,17,302,21,30,15,035,,44,13,123,,20,10,132,21*7E
$GPGSV,4,4,13,29,07,341,*41
$GPRMC,070309.000,A,5325.7164,N,01433.8147,E,0.73,142.09,010612,,,A*67
$GPVTG,142.09,T,,M,0.73,N,1.35,K,A*30
$GPGGA,070310.000,5325.7164,N,01433.8150,E,1,8,1.03,41.1,M,41.8,M,,*66
$GPGSA,A,3,07,23,13,04,05,20,08,10,,,,,1.30,1.03,0.79*02
$GPGSV,4,1,13,13,76,066,28,10,71,275,30,07,54,173,43,23,42,077,33*70
$GPGSV,4,2,13,02,39,279,19,04,37,226,25,16,23,061,,08,19,195,16*7B
$GPGSV,4,3,13,05,17,302,21,30,15,035,,44,13,123,,20,10,132,20*7F
$GPGSV,4,4,13,29,07,340,*40
$GPRMC,070310.000,A,5325.7164,N,01433.8150,E,0.53,142.51,010612,,,A*66
$GPVTG,142.51,T,,M,0.53,N,0.98,K,A*39
$GPGGA,070311.000,5325.7164,N,01433.8152,E,1,7,1.15,40.7,M,41.8,M,,*6A
$GPGSA,A,3,07,23,13,04,05,08,10,,,,,,1.44,1.15,0.86*04
$GPGSV,4,1,13,13,76,066,29,10,71,275,29,07,54,173,43,23,42,077,33*79
$GPGSV,4,2,13,02,39,279,19,04,37,226,25,16,23,061,,08,19,195,16*7B
$GPGSV,4,3,13,05,17,302,20,30,15,034,,44,13,123,,20,10,132,20*7F
$GPGSV,4,4,13,29,07,340,*40
$GPRMC,070311.000,A,5325.7164,N,01433.8152,E,0.55,142.00,010612,,,A*67
$GPVTG,142.00,T,,M,0.55,N,1.01,K,A*3A
$GPGGA,070312.000,5325.7160,N,01433.8152,E,1,7,1.15,40.3,M,41.8,M,,*69
$GPGSA,A,3,07,23,13,04,05,08,10,,,,,,1.44,1.15,0.86*04
$GPGSV,4,1,13,13,76,066,29,10,71,275,29,07,54,173,43,23,42,077,33*79
$GPGSV,4,2,13,02,39,279,21,04,37,226,25,16,23,061,,08,19,195,17*71
$GPGSV,4,3,13,05,17,302,20,30,15,034,,44,13,123,,20,10,132,20*7F
$GPGSV,4,4,13,29,07,340,*40
$GPRMC,070312.000,A,5325.7160,N,01433.8152,E,0.65,142.90,010612,,,A*6A
$GPVTG,142.90,T,,M,0.65,N,1.20,K,A*33
$GPGGA,070313.000,5325.7159,N,01433.8149,E,1,8,1.03,40.0,M,41.8,M,,*63
$GPGSA,A,3,07,23,13,04,05,20,08,10,,,,,1.30,1.03,0.79*02
$GPGSV,4,1,13,13,76,066,29,10,71,275,29,07,54,173,43,23,42,077,33*79
$GPGSV,4,2,13,02,39,279,21,04,37,226,25,16,23,061,,08,19,195,17*71
$GPGSV,4,3,13,05,17,302,20,30,15,034,,20,10,132,20,29,07,340,*76
$GPGSV,4,4,13,34,,,*7C
$GPRMC,070313.000,A,5325.7159,N,01433.8149,E,0.56,144.87,010612,,,A*6B
$GPVTG,144.87,T,,M,0.56,N,1.05,K,A*34
$GPGGA,070314.000,5325.7158,N,01433.8150,E,1,8,1.03,39.7,M,41.8,M,,*64
$GPGSA,A,3,07,23,13,04,05,20,08,10,,,,,1.30,1.03,0.79*02
$GPGSV,4,1,13,13,76,066,29,10,71,275,29,07,54,173,43,23,42,077,33*79
$GPGSV,4,2,13,02,39,279,21,04,37,226,25,16,23,061,,08,19,195,17*71
$GPGSV,4,3,13,05,17,302,20,30,15,034,,20,10,132,20,29,07,340,*76
$GPGSV,4,4,13,34,,,*7C
$GPRMC,070314.000,A,5325.7158,N,01433.8150,E,0.51,145.87,010612,,,A*63
$GPVTG,145.87,T,,M,0.51,N,0.95,K,A*3A
$GPGGA,070315.000,5325.7159,N,01433.8151,E,1,8,1.03,39.5,M,41.8,M,,*67
$GPGSA,A,3,07,23,13,04,05,20,08,10,,,,,1.30,1.03,0.79*02
$GPGSV,4,1,13,13,76,066,29,10,71,275,28,07,54,173,43,23,42,077,33*78
$GPGSV,4,2,13,02,39,279,21,04,37,226,25,16,23,061,,08,19,195,17*71
$GPGSV,4,3,13,05,17,302,20,30,15,034,,20,10,132,19,29,07,340,*7C
$GPGSV,4,4,13,34,,,*7C
$GPRMC,070315.000,A,5325.7159,N,01433.8151,E,0.50,146.65,010612,,,A*6C
$GPVTG,146.65,T,,M,0.50,N,0.94,K,A*35
$GPGGA,070316.000,5325.7159,N,01433.8147,E,1,8,1.03,39.2,M,41.8,M,,*64
$GPGSA,A,3,07,23,13,04,05,20,08,10,,,,,1.30,1.03,0.79*02
$GPGSV,4,1,13,13,76,066,29,10,71,275,28,07,54,173,43,23,42,077,33*78
$GPGSV,4,2,13,02,39,279,20,04,37,226,25,16,23,061,,08,19,195,17*70
$GPGSV,4,3,13,05,17,302,20,30,15,034,,20,10,132,19,29,07,340,*7C
$GPGSV,4,4,13,34,,,*7C
$GPRMC,070316.000,A,5325.7159,N,01433.8147,E,0.53,149.09,010612,,,A*6E
$GPVTG,149.09,T,,M,0.53,N,0.99,K,A*3E
$GPGGA,070317.000,5325.7157,N,01433.8148,E,1,8,1.03,39.2,M,41.8,M,,*64
$GPGSA,A,3,07,23,13,04,05,20,08,10,,,,,1.30,1.03,0.79*02
$GPGSV,4,1,13,13,76,066,29,10,71,275,28,07,54,173,43,23,42,077,33*78
$GPGSV,4,2,13,02,39,279,20,04,37,226,25,16,23,061,,08,19,195,17*70
$GPGSV,4,3,13,05,17,302,20,30,15,034,,20,10,132,19,29,07,340,*7C
$GPGSV,4,4,13,34,,,*7C
$GPRMC,070317.000,A,5325.7157,N,01433.8148,E,0.61,149.47,010612,,,A*65
$GPVTG,149.47,T,,M,0.61,N,1.13,K,A*36
$GPGGA,070318.000,5325.7158,N,01433.8143,E,1,8,1.03,38.9,M,41.8,M,,*65
$GPGSA,A,3,07,23,13,04,05,20,08,10,,,,,1.30,1.03,0.79*02
$GPGSV,4,1,13,13,76,066,30,10,71,275,27,07,54,173,43,23,42,077,34*78
$GPGSV,4,2,13,02,39,279,20,04,37,226,25,16,23,061,,08,19,195,17*70
$GPGSV,4,3,13,05,17,302,20,30,15,034,,20,10,132,19,29,07,340,*7C
$GPGSV,4,4,13,34,,,*7C
$GPRMC,070318.000,A,5325.7158,N,01433.8143,E,0.60,149.60,010612,,,A*6A
$GPVTG,149.60,T,,M,0.60,N,1.11,K,A*30
$GPGGA,070319.000,5325.7158,N,01433.8141,E,1,8,1.03,38.7,M,41.8,M,,*68
$GPGSA,A,3,07,23,13,04,05,20,08,10,,,,,1.30,1.03,0.79*02
$GPGSV,4,1,13,13,76,066,30,10,71,275,27,07,54,173,43,23,42,077,34*78
$GPGSV,4,2,13,02,39,279,20,04,37,226,25,16,23,061,,08,19,195,17*70
$GPGSV,4,3,13,05,17,302,20,30,15,034,,20,10,132,20,29,07,340,*76
$GPGSV,4,4,13,36,,,*7E
$GPRMC,070319.000,A,5325.7158,N,01433.8141,E,0.50,148.84,010612,,,A*61
$GPVTG,148.84,T,,M,0.50,N,0.93,K,A*33
$GPGGA,070320.000,5325.7158,N,01433.8137,E,1,8,1.03,38.6,M,41.8,M,,*62
$GPGSA,A,3,07,23,13,04,05,20,08,10,,,,,1.30,1.03,0.79*02
$GPGSV,4,1,13,13,76,066,30,10,71,275,26,07,54,173,43,23,42,077,34*79
$GPGSV,4,2,13,02,39,279,21,04,37,226,25,16,23,061,,08,19,195,17*71
$GPGSV,4,3,13,05,17,302,20,30,15,034,,20,10,132,20,29,07,340,*76
$GPGSV,4,4,13,36,,,*7E
$GPRMC,070320.000,A,5325.7158,N,01433.8137,E,0.33,148.11,010612,,,A*63
$GPVTG,148.11,T,,M,0.33,N,0.61,K,A*37
$GPGGA,070321.000,5325.7159,N,01433.8133,E,1,8,1.03,38.3,M,41.8,M,,*63
$GPGSA,A,3,07,23,13,04,05,20,08,10,,,,,1.30,1.03,0.79*02
$GPGSV,4,1,13,13,76,066,30,10,71,275,25,07,54,173,43,23,42,077,34*7A
$GPGSV,4,2,13,02,39,279,21,04,37,226,25,16,23,061,,08,19,195,17*71
$GPGSV,4,3,13,05,17,302,20,30,15,034,,20,10,132,20,29,07,340,*76
$GPGSV,4,4,13,36,,,*7E
$GPRMC,070321.000,A,5325.7159,N,01433.8133,E,0.21,150.53,010612,,,A*6B
$GPVTG,150.53,T,,M,0.21,N,0.39,K,A*36
$GPGGA,070322.000,5325.7163,N,01433.8130,E,1,8,1.03,37.9,M,41.8,M,,*6F
$GPGSA,A,3,07,23,13,04,05,20,08,10,,,,,1.30,1.03,0.79*02
$GPGSV,4,1,13,13,76,066,30,10,71,275,25,07,54,173,43,23,42,077,34*7A
$GPGSV,4,2,13,02,39,279,21,04,37,226,25,16,23,061,,08,19,195,17*71
$GPGSV,4,3,13,05,17,302,20,30,15,034,,20,10,132,20,29,07,340,*76
$GPGSV,4,4,13,36,,,*7E
$GPRMC,070322.000,A,5325.7163,N,01433.8130,E,0.15,150.53,010612,,,A*65
$GPVTG,150.53,T,,M,0.15,N,0.27,K,A*3E
$GPGGA,070323.000,5325.7163,N,01433.8130,E,1,8,1.03,37.9,M,41.8,M,,*6E
$GPGSA,A,3,07,23,13,04,05,20,08,10,,,,,1.30,1.03,0.79*02
$GPGSV,4,1,13,13,76,066,30,10,72,274,25,07,54,173,43,23,42,077,34*78
$GPGSV,4,2,13,02,39,279,21,04,37,226,25,16,23,061,,08,19,195,17*71
$GPGSV,4,3,13,05,17,302,20,30,15,034,,20,10,132,21,29,07,340,*77
$GPGSV,4,4,13,38,,,*70
$GPRMC,070323.000,A,5325.7163,N,01433.8130,E,0.11,150.53,010612,,,A*60
$GPVTG,150.53,T,,M,0.11,N,0.20,K,A*3D
$GPGGA,070324.000,5325.7163,N,01433.8129,E,1,8,1.03,37.9,M,41.8,M,,*61
$GPGSA,A,3,07,23,13,04,05,20,08,10,,,,,1.30,1.03,0.79*02
$GPGSV,4,1,13,13,76,066,30,10,72,274,24,07,54,173,43,23,42,077,34*79
$GPGSV,4,2,13,02,39,279,21,04,37,226,25,16,23,061,,08,19,195,18*7E
$GPGSV,4,3,13,05,17,302,20,30,15,034,,20,10,132,20,29,07,340,*76
$GPGSV,4,4,13,38,,,*70
$GPRMC,070324.000,A,5325.7163,N,01433.8129,E,0.20,174.62,010612,,,A*69
$GPVTG,174.62,T,,M,0.20,N,0.38,K,A*32
$GPGGA,070325.000,5325.7163,N,01433.8128,E,1,8,1.03,37.9,M,41.8,M,,*61
$GPGSA,A,3,07,23,13,04,05,20,08,10,,,,,1.30,1.03,0.79*02
$GPGSV,4,1,13,13,76,066,31,10,72,274,24,07,54,173,43,23,42,077,34*78
$GPGSV,4,2,13,02,39,279,21,04,37,226,25,16,23,061,,08,19,195,18*7E
$GPGSV,4,3,13,05,17,302,20,30,15,034,,20,10,132,19,29,07,340,*7C
$GPGSV,4,4,13,38,,,*70
$GPRMC,070325.000,A,5325.7163,N,01433.8128,E,0.09,174.62,010612,,,A*62
$GPVTG,174.62,T,,M,0.09,N,0.18,K,A*3B
$GPGGA,070326.000,5325.7163,N,01433.8128,E,1,8,1.03,37.9,M,41.8,M,,*62
$GPGSA,A,3,07,23,13,04,05,20,08,10,,,,,1.30,1.03,0.79*02
$GPGSV,4,1,13,13,76,066,31,10,72,274,23,07,54,173,43,23,42,077,34*7F
$GPGSV,4,2,13,02,39,279,21,04,37,226,25,16,23,061,,08,19,195,18*7E
$GPGSV,4,3,13,05,17,302,19,30,15,034,,20,10,132,19,29,07,340,*76
$GPGSV,4,4,13,38,,,*70
$GPRMC,070326.000,A,5325.7163,N,01433.8128,E,0.18,174.62,010612,,,A*61
$GPVTG,174.62,T,,M,0.18,N,0.34,K,A*35
$GPGGA,070327.000,5325.7162,N,01433.8128,E,1,8,1.03,37.9,M,41.8,M,,*62
$GPGSA,A,3,07,23,13,04,05,20,08,10,,,,,1.30,1.03,0.79*02
$GPGSV,4,1,13,13,76,066,31,10,72,274,23,07,54,173,43,23,42,077,34*7F
$GPGSV,4,2,13,02,39,279,21,04,37,226,25,16,23,061,,08,19,195,18*7E
$GPGSV,4,3,13,05,17,302,19,30,15,034,,20,10,132,19,29,07,340,*76
$GPGSV,4,4,13,40,,,*7F
$GPRMC,070327.000,A,5325.7162,N,01433.8128,E,0.03,174.62,010612,,,A*6B
$GPVTG,174.62,T,,M,0.03,N,0.06,K,A*3E
$GPGGA,070328.000,5325.7162,N,01433.8128,E,1,8,1.03,37.9,M,41.8,M,,*6D
$GPGSA,A,3,07,23,13,04,05,20,08,10,,,,,1.30,1.03,0.79*02
$GPGSV,4,1,13,13,76,066,31,10,72,274,22,07,54,173,43,23,42,077,34*7E
$GPGSV,4,2,13,02,39,279,21,04,37,226,25,16,23,061,,08,19,195,18*7E
$GPGSV,4,3,13,05,17,302,19,30,15,034,,20,10,132,18,29,07,340,*77
$GPGSV,4,4,13,40,,,*7F
$GPRMC,070328.000,A,5325.7162,N,01433.8128,E,0.18,174.62,010612,,,A*6E
$GPVTG,174.62,T,,M,0.18,N,0.33,K,A*32
$GPGGA,070329.000,5325.7162,N,01433.8128,E,1,8,1.03,37.9,M,41.8,M,,*6C
$GPGSA,A,3,07,23,13,04,05,20,08,10,,,,,1.30,1.03,0.79*02
$GPGSV,4,1,13,13,76,066,31,10,72,274,21,07,54,173,43,23,42,077,34*7D
$GPGSV,4,2,13,02,39,279,21,04,37,226,24,16,23,061,,08,19,195,18*7F
$GPGSV,4,3,13,05,17,302,19,30,15,034,,20,10,132,18,29,07,340,*77
$GPGSV,4,4,13,40,,,*7F
$GPRMC,070329.000,A,5325.7162,N,01433.8128,E,0.12,174.62,010612,,,A*65
$GPVTG,174.62,T,,M,0.12,N,0.22,K,A*38
$GPGGA,070330.000,5325.7162,N,01433.8129,E,1,8,1.03,37.9,M,41.8,M,,*65
$GPGSA,A,3,07,23,13,04,05,20,08,10,,,,,1.30,1.03,0.79*02
$GPGSV,4,1,13,13,76,066,32,10,72,274,20,07,54,173,43,23,42,077,34*7F
$GPGSV,4,2,13,02,39,279,21,04,37,226,24,16,23,061,,08,19,195,18*7F
$GPGSV,4,3,13,05,17,302,19,30,15,034,,20,10,132,18,29,07,340,*77
$GPGSV,4,4,13,40,,,*7F
$GPRMC,070330.000,A,5325.7162,N,01433.8129,E,0.10,174.62,010612,,,A*6E
$GPVTG,174.62,T,,M,0.10,N,0.18,K,A*33
$GPGGA,070331.000,5325.7162,N,01433.8128,E,1,8,1.03,37.9,M,41.8,M,,*65
$GPGSA,A,3,07,23,13,04,05,20,08,10,,,,,1.30,1.03,0.79*02
$GPGSV,4,1,13,13,76,066,32,10,72,274,19,07,54,173,43,23,42,077,34*75
$GPGSV,4,2,13,02,39,279,21,04,37,226,24,16,23,061,,08,19,195,19*7E
$GPGSV,4,3,13,05,17,302,19,30,15,034,,20,10,132,18,29,07,340,*77
$GPGSV,4,4,13,40,,,*7F
$GPRMC,070331.000,A,5325.7162,N,01433.8128,E,0.10,174.62,010612,,,A*6E
$GPVTG,174.62,T,,M,0.10,N,0.19,K,A*32
$GPGGA,070332.000,5325.7161,N,01433.8128,E,1,8,1.03,37.9,M,41.8,M,,*65
$GPGSA,A,3,07,23,13,04,05,20,08,10,,,,,1.30,1.03,0.79*02
$GPGSV,4,1,13,13,76,066,32,10,72,274,18,07,54,173,43,23,42,077,34*74
$GPGSV,4,2,13,02,39,279,21,04,37,226,24,16,23,061,,08,19,195,19*7E
$GPGSV,4,3,13,05,17,302,19,30,15,034,,20,10,132,18,29,07,340,*77
$GPGSV,4,4,13,41,,,*7E
$GPRMC,070332.000,A,5325.7161,N,01433.8128,E,0.23,229.89,010612,,,A*60
$GPVTG,229.89,T,,M,0.23,N,0.43,K,A*33
$GPGGA,070333.000,5325.7162,N,01433.8127,E,1,8,1.03,37.9,M,41.8,M,,*68
$GPGSA,A,3,07,23,13,04,05,20,08,10,,,,,1.30,1.03,0.79*02
$GPGSV,4,1,13,13,76,066,32,10,72,274,18,07,54,173,43,23,42,077,34*74
$GPGSV,4,2,13,02,39,279,20,04,37,226,24,16,23,061,,08,19,195,19*7F
$GPGSV,4,3,13,05,17,302,20,30,15,034,,20,10,132,18,29,07,340,*7D
$GPGSV,4,4,13,41,,,*7E
$GPRMC,070333.000,A,5325.7162,N,01433.8127,E,0.35,269.89,010612,,,A*6E
$GPVTG,269.89,T,,M,0.35,N,0.65,K,A*34
$GPGGA,070334.000,5325.7162,N,01433.8125,E,1,8,1.03,37.9,M,41.8,M,,*6D
$GPGSA,A,3,07,23,13,04,05,20,08,10,,,,,1.30,1.03,0.79*02
$GPGSV,4,1,13,13,76,066,32,10,72,274,17,07,54,173,43,23,42,077,34*7B
$GPGSV,4,2,13,02,39,279,19,04,37,226,24,16,23,061,,08,19,195,20*7F
$GPGSV,4,3,13,05,17,302,20,30,15,034,,20,10,132,18,29,07,340,*7D
$GPGSV,4,4,13,41,,,27*7B
$GPRMC,070334.000,A,5325.7162,N,01433.8125,E,0.32,284.03,010612,,,A*6D
$GPVTG,284.03,T,,M,0.32,N,0.60,K,A*37
$GPGGA,070335.000,5325.7163,N,01433.8124,E,1,8,1.03,37.9,M,41.8,M,,*6C
$GPGSA,A,3,07,23,13,04,05,20,08,10,,,,,1.30,1.03,0.79*02
$GPGSV,4,1,13,13,76,066,32,10,72,274,16,07,54,173,43,23,42,077,34*7A
$GPGSV,4,2,13,02,39,279,19,04,37,226,24,16,23,061,,08,19,195,20*7F
$GPGSV,4,3,13,05,17,302,21,30,15,034,,20,10,132,18,29,07,340,*7C
$GPGSV,4,4,13,41,,,26*7A
$GPRMC,070335.000,A,5325.7163,N,01433.8124,E,0.33,292.65,010612,,,A*6A
$GPVTG,292.65,T,,M,0.33,N,0.62,K,A*33
$GPGGA,070336.000,5325.7163,N,01433.8122,E,1,8,1.03,37.9,M,41.8,M,,*69
$GPGSA,A,3,07,23,13,04,05,20,08,10,,,,,1.30,1.03,0.79*02
$GPGSV,4,1,13,13,76,066,32,10,72,274,16,07,54,173,43,23,42,077,34*7A
$GPGSV,4,2,13,02,39,279,19,04,37,226,23,16,23,061,,08,19,195,20*78
$GPGSV,4,3,13,05,17,302,21,30,15,034,,20,10,132,18,29,07,340,*7C
$GPGSV,4,4,13,41,,,*7E
$GPRMC,070336.000,A,5325.7163,N,01433.8122,E,0.34,293.84,010612,,,A*66
$GPVTG,293.84,T,,M,0.34,N,0.63,K,A*3B
$GPGGA,070337.000,5325.7164,N,01433.8121,E,1,8,1.03,37.9,M,41.8,M,,*6C
$GPGSA,A,3,07,23,13,04,05,20,08,10,,,,,1.30,1.03,0.79*02
$GPGSV,4,1,13,13,76,066,32,10,72,274,16,07,54,173,43,23,42,077,34*7A
$GPGSV,4,2,13,02,39,279,19,04,37,226,22,16,23,061,,08,19,195,20*79
$GPGSV,4,3,13,05,17,302,21,30,15,034,,20,10,132,18,29,07,340,*7C
$GPGSV,4,4,13,41,,,27*7B
$GPRMC,070337.000,A,5325.7164,N,01433.8121,E,0.17,293.84,010612,,,A*62
$GPVTG,293.84,T,,M,0.17,N,0.32,K,A*3E
$GPGGA,070338.000,5325.7164,N,01433.8120,E,1,8,1.03,37.9,M,41.8,M,,*62
$GPGSA,A,3,07,23,13,04,05,20,08,10,,,,,1.30,1.03,0.79*02
$GPGSV,4,1,13,13,76,066,32,10,72,274,16,07,54,173,43,23,42,077,34*7A
$GPGSV,4,2,13,02,39,279,19,04,37,226,22,16,23,061,,08,19,195,20*79
$GPGSV,4,3,13,05,17,302,21,30,15,034,,20,10,132,18,29,07,340,*7C
$GPGSV,4,4,13,41,,,27*7B
$GPRMC,070338.000,A,5325.7164,N,01433.8120,E,0.27,289.58,010612,,,A*65
$GPVTG,289.58,T,,M,0.27,N,0.50,K,A*33
$GPGGA,070339.000,5325.7164,N,01433.8118,E,1,8,1.03,37.8,M,41.8,M,,*69
$GPGSA,A,3,07,23,13,04,05,20,08,10,,,,,1.30,1.03,0.79*02
$GPGSV,4,1,13,13,76,066,32,10,72,274,16,07,54,173,43,23,42,077,34*7A
$GPGSV,4,2,13,02,39,279,19,04,37,226,22,16,23,061,,08,19,195,20*79
$GPGSV,4,3,13,05,17,302,21,30,15,034,,20,10,132,18,29,07,340,*7C
$GPGSV,4,4,13,41,,,*7E
$GPRMC,070339.000,A,5325.7164,N,01433.8118,E,0.36,296.64,010612,,,A*6E
$GPVTG,296.64,T,,M,0.36,N,0.67,K,A*36
$GPGGA,070340.000,5325.7165,N,01433.8117,E,1,8,1.03,37.8,M,41.8,M,,*69
$GPGSA,A,3,07,23,13,04,05,20,08,10,,,,,1.30,1.03,0.79*02
$GPGSV,4,1,13,13,76,066,32,10,72,274,15,07,54,173,43,23,42,077,34*79
$GPGSV,4,2,13,02,39,279,18,04,37,226,22,16,23,061,,08,19,195,20*78
$GPGSV,4,3,13,05,17,302,22,30,15,034,,20,10,132,18,29,07,340,*7F
$GPGSV,4,4,13,41,,,*7E
$GPRMC,070340.000,A,5325.7165,N,01433.8117,E,0.32,293.45,010612,,,A*6C
$GPVTG,293.45,T,,M,0.32,N,0.59,K,A*39
$GPGGA,070341.000,5325.7165,N,01433.8115,E,1,7,1.05,37.8,M,41.8,M,,*63
$GPGSA,A,3,07,23,13,04,05,20,08,,,,,,1.33,1.05,0.82*02
$GPGSV,4,1,13,13,76,066,32,10,72,274,,07,54,173,43,23,42,077,34*7D
$GPGSV,4,2,13,02,39,279,18,04,37,226,22,16,23,061,,08,19,195,20*78
$GPGSV,4,3,13,05,17,302,22,30,15,034,,20,10,132,18,29,07,340,*7F
$GPGSV,4,4,13,43,,,*7C
$GPRMC,070341.000,A,5325.7165,N,01433.8115,E,0.31,290.08,010612,,,A*66
$GPVTG,290.08,T,,M,0.31,N,0.58,K,A*31
$GPGGA,070342.000,5325.7165,N,01433.8114,E,1,7,1.04,37.8,M,41.8,M,,*60
$GPGSA,A,3,07,23,13,04,05,20,08,,,,,,1.33,1.04,0.82*03
$GPGSV,4,1,13,13,76,066,32,10,72,274,,07,54,173,43,23,42,077,34*7D
$GPGSV,4,2,13,02,39,279,18,04,37,226,21,16,23,061,,08,19,195,20*7B
$GPGSV,4,3,13,05,17,302,23,30,15,034,,20,10,132,18,29,07,340,*7E
$GPGSV,4,4,13,43,,,*7C
$GPRMC,070342.000,A,5325.7165,N,01433.8114,E,0.37,289.44,010612,,,A*62
$GPVTG,289.44,T,,M,0.37,N,0.69,K,A*35
$GPGGA,070343.000,5325.7166,N,01433.8112,E,1,7,1.05,37.8,M,41.8,M,,*65
$GPGSA,A,3,07,23,13,04,05,20,08,,,,,,1.33,1.05,0.82*02
$GPGSV,4,1,13,13,76,066,32,10,72,274,,07,54,173,43,23,42,077,34*7D
$GPGSV,4,2,13,02,39,279,18,04,37,226,21,16,23,061,,08,19,195,20*7B
$GPGSV,4,3,13,05,17,302,23,30,15,034,,20,10,132,18,29,07,340,*7E
$GPGSV,4,4,13,43,,,*7C
$GPRMC,070343.000,A,5325.7166,N,01433.8112,E,0.32,287.23,010612,,,A*6C
$GPVTG,287.23,T,,M,0.32,N,0.58,K,A*3D
$GPGGA,070344.000,5325.7166,N,01433.8110,E,1,7,1.05,37.8,M,41.8,M,,*60
$GPGSA,A,3,07,23,13,04,05,20,08,,,,,,1.33,1.05,0.82*02
$GPGSV,4,1,13,13,76,066,32,10,72,274,,07,54,173,43,23,42,077,34*7D
$GPGSV,4,2,13,02,39,279,18,04,37,226,20,16,23,061,,08,19,195,21*7B
$GPGSV,4,3,13,05,17,302,23,30,15,034,,20,10,132,18,29,07,340,*7E
$GPGSV,4,4,13,43,,,*7C
$GPRMC,070344.000,A,5325.7166,N,01433.8110,E,0.10,287.23,010612,,,A*69
$GPVTG,287.23,T,,M,0.10,N,0.19,K,A*38
$GPGGA,070345.000,5325.7166,N,01433.8110,E,1,7,1.05,37.8,M,41.8,M,,*61
$GPGSA,A,3,07,23,13,04,05,20,08,,,,,,1.33,1.05,0.82*02
$GPGSV,4,1,13,13,76,066,32,10,72,274,,07,54,173,43,23,42,077,34*7D
$GPGSV,4,2,13,02,39,279,18,04,37,226,20,16,23,061,,08,19,195,21*7B
$GPGSV,4,3,13,05,17,302,23,30,15,034,,20,10,132,17,29,07,340,*71
$GPGSV,4,4,13,43,,,*7C
$GPRMC,070345.000,A,5325.7166,N,01433.8110,E,0.23,282.57,010612,,,A*6E
$GPVTG,282.57,T,,M,0.23,N,0.42,K,A*30
$GPGGA,070346.000,5325.7166,N,01433.8109,E,1,7,1.05,37.7,M,41.8,M,,*65
$GPGSA,A,3,07,23,13,04,05,20,08,,,,,,1.33,1.05,0.82*02
$GPGSV,4,1,13,13,76,066,33,10,72,274,,07,54,173,43,23,42,077,34*7C
$GPGSV,4,2,13,02,39,279,17,04,37,226,19,16,23,061,,08,19,195,21*7E
$GPGSV,4,3,13,05,17,302,23,30,15,034,,20,10,132,17,29,07,340,*71
$GPGSV,4,4,13,43,,,*7C
$GPRMC,070346.000,A,5325.7166,N,01433.8109,E,0.17,282.57,010612,,,A*62
$GPVTG,282.57,T,,M,0.17,N,0.31,K,A*33
$GPGGA,070347.000,5325.7166,N,01433.8108,E,1,7,1.04,37.7,M,41.8,M,,*64
$GPGSA,A,3,07,23,13,04,05,20,08,,,,,,1.33,1.04,0.82*03
$GPGSV,4,1,13,13,76,066,33,10,72,274,,07,54,173,43,23,42,077,34*7C
$GPGSV,4,2,13,02,39,278,17,04,37,226,18,16,23,061,,08,19,195,21*7E
$GPGSV,4,3,13,05,17,302,23,30,15,034,,20,10,132,17,29,07,340,*71
$GPGSV,4,4,13,45,,,*7A
$GPRMC,070347.000,A,5325.7166,N,01433.8108,E,0.21,263.75,010612,,,A*68
$GPVTG,263.75,T,,M,0.21,N,0.39,K,A*31
$GPGGA,070348.000,5325.7165,N,01433.8107,E,1,7,1.05,37.7,M,41.8,M,,*66
$GPGSA,A,3,07,23,13,04,05,20,08,,,,,,1.33,1.05,0.82*02
$GPGSV,4,1,13,13,76,066,33,10,72,274,,07,54,173,43,23,42,077,34*7C
$GPGSV,4,2,13,02,39,278,17,04,37,226,17,16,23,061,,08,19,195,21*71
$GPGSV,4,3,13,05,17,302,23,30,15,034,,20,10,132,17,29,07,340,*71
$GPGSV,4,4,13,45,,,*7A
$GPRMC,070348.000,A,5325.7165,N,01433.8107,E,0.14,263.75,010612,,,A*6D
$GPVTG,263.75,T,,M,0.14,N,0.26,K,A*39
$GPGGA,070349.000,5325.7165,N,01433.8106,E,1,7,1.04,37.7,M,41.8,M,,*67
$GPGSA,A,3,07,23,13,04,05,20,08,,,,,,1.33,1.04,0.82*03
$GPGSV,4,1,13,13,76,066,33,10,72,274,,07,54,173,43,23,42,077,34*7C
$GPGSV,4,2,13,02,39,278,16,04,37,226,17,16,23,061,,08,19,195,21*70
$GPGSV,4,3,13,05,17,302,24,30,15,034,,20,10,132,16,29,07,340,*77
$GPGSV,4,4,13,45,,,*7A
$GPRMC,070349.000,A,5325.7165,N,01433.8106,E,0.19,263.75,010612,,,A*60
$GPVTG,263.75,T,,M,0.19,N,0.36,K,A*35
$GPGGA,070350.000,5325.7165,N,01433.8106,E,1,7,1.04,37.7,M,41.8,M,,*6F
$GPGSA,A,3,07,23,13,04,05,20,08,,,,,,1.33,1.04,0.82*03
$GPGSV,4,1,13,13,76,066,33,10,72,274,,07,54,173,43,23,42,077,34*7C
$GPGSV,4,2,13,02,39,278,16,04,37,226,17,16,23,061,,08,19,195,21*70
$GPGSV,4,3,13,05,18,302,24,30,15,034,,20,10,132,16,29,07,340,*78
$GPGSV,4,4,13,45,,,*7A
$GPRMC,070350.000,A,5325.7165,N,01433.8106,E,0.25,223.44,010612,,,A*61
$GPVTG,223.44,T,,M,0.25,N,0.47,K,A*3A
$GPGGA,070351.000,5325.7164,N,01433.8106,E,1,7,1.04,37.7,M,41.8,M,,*6F
$GPGSA,A,3,07,23,13,04,05,20,08,,,,,,1.33,1.04,0.82*03
$GPGSV,4,1,13,13,76,066,33,10,72,274,,07,54,173,43,23,42,077,34*7C
$GPGSV,4,2,13,02,39,278,16,04,37,226,17,16,23,061,,08,19,195,21*70
$GPGSV,4,3,13,05,18,302,24,30,15,034,,20,10,132,16,29,07,340,*78
$GPGSV,4,4,13,45,,,*7A
$GPRMC,070351.000,A,5325.7164,N,01433.8106,E,0.20,217.38,010612,,,A*68
$GPVTG,217.38,T,,M,0.20,N,0.37,K,A*34
$GPGGA,070352.000,5325.7164,N,01433.8105,E,1,7,1.04,37.6,M,41.8,M,,*6E
$GPGSA,A,3,07,23,13,04,05,20,08,,,,,,1.33,1.04,0.82*03
$GPGSV,4,1,13,13,76,066,33,10,72,274,,07,54,173,43,23,42,077,34*7C
$GPGSV,4,2,13,02,39,278,16,04,37,226,17,16,23,061,,08,19,195,22*73
$GPGSV,4,3,13,05,18,302,24,30,15,034,,20,10,132,16,29,07,340,*78
$GPGSV,4,4,13,46,,,*79
$GPRMC,070352.000,A,5325.7164,N,01433.8105,E,0.19,217.38,010612,,,A*62
$GPVTG,217.38,T,,M,0.19,N,0.35,K,A*3C
$GPGGA,070353.000,5325.7163,N,01433.8104,E,1,7,1.04,37.6,M,41.8,M,,*69
$GPGSA,A,3,07,23,13,04,05,20,08,,,,,,1.33,1.04,0.82*03
$GPGSV,4,1,13,13,76,066,33,10,72,274,,07,54,173,43,23,42,077,34*7C
$GPGSV,4,2,13,02,39,278,15,04,37,226,17,16,23,061,,08,20,195,22*7A
$GPGSV,4,3,13,05,18,302,25,30,15,034,,20,10,132,16,29,07,340,*79
$GPGSV,4,4,13,46,,,*79
$GPRMC,070353.000,A,5325.7163,N,01433.8104,E,0.15,217.38,010612,,,A*69
$GPVTG,217.38,T,,M,0.15,N,0.29,K,A*3D
$GPGGA,070354.000,5325.7163,N,01433.8103,E,1,7,1.04,37.6,M,41.8,M,,*69
$GPGSA,A,3,07,23,13,04,05,20,08,,,,,,1.33,1.04,0.82*03
$GPGSV,4,1,13,13,76,066,33,10,72,274,,07,54,173,43,23,42,077,34*7C
$GPGSV,4,2,13,02,39,278,15,04,37,226,17,16,23,061,,08,20,195,22*7A
$GPGSV,4,3,13,05,18,302,25,30,15,034,,20,10,132,16,29,07,340,*79
$GPGSV,4,4,13,46,,,*79
$GPRMC,070354.000,A,5325.7163,N,01433.8103,E,0.05,217.38,010612,,,A*68
$GPVTG,217.38,T,,M,0.05,N,0.09,K,A*3E
$GPGGA,070355.000,5325.7164,N,01433.8103,E,1,7,1.04,37.6,M,41.8,M,,*6F
$GPGSA,A,3,07,23,13,04,05,20,08,,,,,,1.33,1.04,0.82*03
$GPGSV,4,1,13,13,76,066,33,10,72,274,,07,54,173,43,23,42,077,34*7C
$GPGSV,4,2,13,02,39,278,15,04,37,226,17,16,23,061,,08,20,195,22*7A
$GPGSV,4,3,13,05,18,302,25,30,15,034,,20,10,132,15,29,07,340,*7A
$GPGSV,4,4,13,46,,,*79
$GPRMC,070355.000,A,5325.7164,N,01433.8103,E,0.07,217.38,010612,,,A*6C
$GPVTG,217.38,T,,M,0.07,N,0.12,K,A*36
$GPGGA,070356.000,5325.7163,N,01433.8103,E,1,7,1.15,37.6,M,41.8,M,,*6B
$GPGSA,A,3,07,23,13,04,05,08,10,,,,,,1.44,1.15,0.86*04
$GPGSV,4,1,13,13,76,066,33,10,72,274,18,07,54,173,43,23,42,077,34*75
$GPGSV,4,2,13,02,39,278,15,04,37,226,17,16,23,061,,08,20,195,22*7A
$GPGSV,4,3,13,05,18,302,25,30,15,034,,20,10,132,,29,07,340,*7E
$GPGSV,4,4,13,46,,,*79
$GPRMC,070356.000,A,5325.7163,N,01433.8103,E,0.07,217.38,010612,,,A*68
$GPVTG,217.38,T,,M,0.07,N,0.12,K,A*36
$GPGGA,070357.000,5325.7163,N,01433.8103,E,1,7,1.15,37.6,M,41.8,M,,*6A
$GPGSA,A,3,07,23,13,04,05,08,10,,,,,,1.44,1.15,0.86*04
$GPGSV,4,1,13,13,76,066,33,10,72,274,20,07,54,173,43,23,42,077,34*7E
$GPGSV,4,2,13,02,39,278,15,04,37,226,17,16,23,061,,08,20,195,22*7A
$GPGSV,4,3,13,05,18,302,25,30,15,034,,20,10,132,,29,07,340,*7E
$GPGSV,4,4,13,49,,,*76
$GPRMC,070357.000,A,5325.7163,N,01433.8103,E,0.22,186.84,010612,,,A*62
$GPVTG,186.84,T,,M,0.22,N,0.42,K,A*38
$GPGGA,070358.000,5325.7163,N,01433.8104,E,1,7,1.15,37.6,M,41.8,M,,*62
$GPGSA,A,3,07,23,13,04,05,08,10,,,,,,1.44,1.15,0.86*04
$GPGSV,4,1,13,13,76,066,33,10,72,274,18,07,54,173,43,23,42,077,33*72
$GPGSV,4,2,13,02,39,278,15,04,37,226,17,16,23,061,,08,20,195,22*7A
$GPGSV,4,3,13,05,18,302,25,30,15,034,,20,10,132,,29,07,340,*7E
$GPGSV,4,4,13,49,,,*76
$GPRMC,070358.000,A,5325.7163,N,01433.8104,E,0.29,175.14,010612,,,A*64
$GPVTG,175.14,T,,M,0.29,N,0.53,K,A*36
$GPGGA,070359.000,5325.7162,N,01433.8104,E,1,8,1.15,37.6,M,41.8,M,,*6D
$GPGSA,A,3,07,23,13,04,05,20,08,10,,,,,1.44,1.15,0.86*06
$GPGSV,4,1,13,13,76,066,33,10,72,274,20,07,54,173,43,23,42,077,33*79
$GPGSV,4,2,13,02,39,278,15,04,37,226,17,16,23,061,,08,20,195,22*7A
$GPGSV,4,3,13,05,18,302,25,30,15,034,,20,10,132,16,29,07,340,*79
$GPGSV,4,4,13,49,,,*76
$GPRMC,070359.000,A,5325.7162,N,01433.8104,E,0.43,170.39,010612,,,A*62
$GPVTG,170.39,T,,M,0.43,N,0.80,K,A*3E
$GPGGA,070400.000,5325.7161,N,01433.8104,E,1,8,1.15,37.6,M,41.8,M,,*65
$GPGSA,A,3,07,23,13,04,05,20,08,10,,,,,1.44,1.15,0.86*06
$GPGSV,4,1,13,13,76,066,33,10,72,274,20,07,54,173,43,23,42,077,33*79
$GPGSV,4,2,13,02,39,278,15,04,37,226,17,16,23,061,,08,20,195,22*7A
$GPGSV,4,3,13,05,18,302,25,30,15,034,,20,10,132,15,29,07,340,*7A
$GPGSV,4,4,13,49,,,*76
$GPRMC,070400.000,A,5325.7161,N,01433.8104,E,0.30,169.62,010612,,,A*68
$GPVTG,169.62,T,,M,0.30,N,0.56,K,A*37
$GPGGA,070401.000,5325.7160,N,01433.8105,E,1,8,1.15,37.6,M,41.8,M,,*64
$GPGSA,A,3,07,23,13,04,05,20,08,10,,,,,1.44,1.15,0.86*06
$GPGSV,4,1,13,13,76,066,33,10,72,274,20,07,54,173,43,23,42,077,33*79
$GPGSV,4,2,13,02,39,278,15,04,37,226,17,16,23,060,,08,20,195,21*78
$GPGSV,4,3,13,05,18,302,25,30,15,034,,20,10,132,15,29,07,340,*7A
$GPGSV,4,4,13,49,,,*76
$GPRMC,070401.000,A,5325.7160,N,01433.8105,E,0.33,169.53,010612,,,A*68
$GPVTG,169.53,T,,M,0.33,N,0.62,K,A*31
$GPGGA,070402.000,5325.7159,N,01433.8105,E,1,8,1.15,37.6,M,41.8,M,,*6D
$GPGSA,A,3,07,23,13,04,05,20,08,10,,,,,1.44,1.15,0.86*06
$GPGSV,4,1,13,13,76,066,33,10,72,274,21,07,54,173,43,23,42,077,33*78
$GPGSV,4,2,13,02,39,278,16,04,37,226,17,16,23,060,,08,20,195,21*7B
$GPGSV,4,3,13,05,18,302,25,30,15,034,,20,10,132,14,29,07,340,*7B
$GPGSV,4,4,13,49,,,*76
$GPRMC,070402.000,A,5325.7159,N,01433.8105,E,0.25,174.04,010612,,,A*68
$GPVTG,174.04,T,,M,0.25,N,0.46,K,A*3E
$GPGGA,070403.000,5325.7159,N,01433.8105,E,1,7,1.15,37.6,M,41.8,M,,*63
$GPGSA,A,3,07,23,13,04,05,08,10,,,,,,1.44,1.15,0.86*04
$GPGSV,4,1,13,13,76,066,33,10,72,274,21,07,54,173,43,23,42,077,33*78
$GPGSV,4,2,13,02,39,278,16,04,37,226,17,16,23,060,,08,20,195,21*7B
$GPGSV,4,3,13,05,18,302,25,30,15,034,,20,10,132,,29,07,340,*7E
$GPGSV,4,4,13,49,,,*76
$GPRMC,070403.000,A,5325.7159,N,01433.8105,E,0.32,177.44,010612,,,A*68
$GPVTG,177.44,T,,M,0.32,N,0.59,K,A*31
$GPGGA,070404.000,5325.7158,N,01433.8104,E,1,7,1.15,37.6,M,41.8,M,,*64
$GPGSA,A,3,07,23,13,04,05,08,10,,,,,,1.44,1.15,0.86*04
$GPGSV,4,1,13,13,76,066,33,10,72,274,22,07,54,173,43,23,42,077,33*7B
$GPGSV,4,2,13,02,39,278,15,04,37,226,17,16,23,060,,08,20,195,20*79
$GPGSV,4,3,13,05,18,302,25,30,15,034,,20,10,132,,29,07,340,*7E
$GPGSV,4,4,13,49,,,*76
$GPRMC,070404.000,A,5325.7158,N,01433.8104,E,0.36,183.10,010612,,,A*61
$GPVTG,183.10,T,,M,0.36,N,0.66,K,A*33
$GPGGA,070405.000,5325.7157,N,01433.8104,E,1,7,1.15,37.6,M,41.8,M,,*6A
$GPGSA,A,3,07,23,13,04,05,08,10,,,,,,1.44,1.15,0.87*05
$GPGSV,4,1,13,13,76,066,33,10,72,274,22,07,54,173,43,23,42,077,32*7A
$GPGSV,4,2,13,02,39,278,15,04,37,226,17,16,23,060,,08,20,195,20*79
$GPGSV,4,3,13,05,18,302,26,30,15,034,,20,10,132,,29,07,340,*7D
$GPGSV,4,4,13,49,,,*76
$GPRMC,070405.000,A,5325.7157,N,01433.8104,E,0.39,189.50,010612,,,A*6E
$GPVTG,189.50,T,,M,0.39,N,0.72,K,A*37
$GPGGA,070406.000,5325.7156,N,01433.8103,E,1,7,1.15,37.6,M,41.8,M,,*6F
$GPGSA,A,3,07,23,13,04,05,08,10,,,,,,1.44,1.15,0.87*05
$GPGSV,4,1,13,13,76,066,33,10,72,274,23,07,54,173,43,23,42,077,32*7B
$GPGSV,4,2,13,02,39,278,15,04,37,226,17,16,23,060,,08,20,195,20*79
$GPGSV,4,3,13,05,18,302,26,30,15,034,,20,10,132,,29,07,340,*7D
$GPGSV,4,4,13,49,,,*76
$GPRMC,070406.000,A,5325.7156,N,01433.8103,E,0.33,197.25,010612,,,A*6C
$GPVTG,197.25,T,,M,0.33,N,0.62,K,A*31
$GPGGA,070407.000,5325.7155,N,01433.8102,E,1,7,1.15,37.6,M,41.8,M,,*6C
$GPGSA,A,3,07,23,13,04,05,08,10,,,,,,1.44,1.15,0.87*05
$GPGSV,4,1,13,13,76,066,33,10,72,274,23,07,54,173,43,23,42,077,32*7B
$GPGSV,4,2,13,02,39,278,15,04,37,226,16,37,28,171,,16,23,060,*74
$GPGSV,4,3,13,08,20,195,20,05,18,302,26,30,15,034,,20,10,132,*73
$GPGSV,4,4,13,29,07,340,*40
$GPRMC,070407.000,A,5325.7155,N,01433.8102,E,0.43,204.43,010612,,,A*61
$GPVTG,204.43,T,,M,0.43,N,0.80,K,A*33
$GPGGA,070408.000,5325.7154,N,01433.8101,E,1,7,1.15,37.6,M,41.8,M,,*61
$GPGSA,A,3,07,23,13,04,05,08,10,,,,,,1.44,1.15,0.87*05
$GPGSV,4,1,13,13,76,066,33,10,72,274,24,07,54,173,43,23,41,077,31*7C
$GPGSV,4,2,13,02,39,278,15,04,37,226,16,37,28,171,,16,23,060,*74
$GPGSV,4,3,13,08,20,195,20,05,18,302,26,30,15,034,,20,10,132,*73
$GPGSV,4,4,13,29,07,340,*40
$GPRMC,070408.000,A,5325.7154,N,01433.8101,E,0.51,206.92,010612,,,A*61
$GPVTG,206.92,T,,M,0.51,N,0.95,K,A*3A
$GPGGA,070409.000,5325.7153,N,01433.8099,E,1,7,1.15,37.6,M,41.8,M,,*67
$GPGSA,A,3,07,23,13,04,05,08,10,,,,,,1.44,1.15,0.87*05
$GPGSV,4,1,13,13,76,066,33,10,72,274,24,07,54,173,43,23,41,077,31*7C
$GPGSV,4,2,13,02,39,278,,04,37,226,16,37,28,171,,16,23,060,*70
$GPGSV,4,3,13,08,20,195,20,05,18,302,26,30,15,034,,20,10,132,*73
$GPGSV,4,4,13,29,07,340,*40
$GPRMC,070409.000,A,5325.7153,N,01433.8099,E,0.55,204.29,010612,,,A*61
$GPVTG,204.29,T,,M,0.55,N,1.02,K,A*33
$GPGGA,070410.000,5325.7152,N,01433.8098,E,1,7,1.15,37.6,M,41.8,M,,*6F
$GPGSA,A,3,07,23,13,04,05,08,10,,,,,,1.44,1.15,0.87*05
$GPGSV,4,1,13,13,76,066,33,10,72,274,24,07,54,173,43,23,41,077,31*7C
$GPGSV,4,2,13,02,39,278,,04,37,226,16,37,28,171,,16,23,060,*70
$GPGSV,4,3,13,08,20,195,19,05,18,302,26,30,15,034,,20,10,132,*79
$GPGSV,4,4,13,29,07,340,*40
$GPRMC,070410.000,A,5325.7152,N,01433.8098,E,0.47,204.99,010612,,,A*61
$GPVTG,204.99,T,,M,0.47,N,0.87,K,A*37
$GPGGA,070411.000,5325.7151,N,01433.8097,E,1,7,1.15,37.6,M,41.8,M,,*62
$GPGSA,A,3,07,23,13,04,05,08,10,,,,,,1.44,1.15,0.87*05
$GPGSV,4,1,13,13,76,066,33,10,72,274,24,07,54,173,43,23,41,077,31*7C
$GPGSV,4,2,13,02,39,278,,04,37,226,16,37,28,171,,16,23,060,*70
$GPGSV,4,3,13,08,20,195,18,05,18,302,26,30,15,034,,20,10,132,*78
$GPGSV,4,4,13,29,07,340,*40
$GPRMC,070411.000,A,5325.7151,N,01433.8097,E,0.40,203.39,010612,,,A*66
$GPVTG,203.39,T,,M,0.40,N,0.74,K,A*31
$GPGGA,070412.000,5325.7150,N,01433.8097,E,1,7,1.15,37.6,M,41.8,M,,*60
$GPGSA,A,3,07,23,13,04,05,08,10,,,,,,1.44,1.15,0.87*05
$GPGSV,4,1,13,13,76,066,33,10,72,274,24,07,54,173,43,23,41,077,31*7C
$GPGSV,4,2,13,02,39,278,,04,37,226,16,37,28,171,27,16,23,060,*75
$GPGSV,4,3,13,08,20,195,18,05,18,302,26,30,15,034,,20,10,132,*78
$GPGSV,4,4,13,29,07,340,*40
$GPRMC,070412.000,A,5325.7150,N,01433.8097,E,0.44,201.86,010612,,,A*66
$GPVTG,201.86,T,,M,0.44,N,0.81,K,A*39
$GPGGA,070413.000,5325.7149,N,01433.8096,E,1,7,1.15,37.6,M,41.8,M,,*68
$GPGSA,A,3,07,23,13,04,05,08,10,,,,,,1.44,1.15,0.87*05
$GPGSV,4,1,13,13,76,066,33,10,72,274,24,07,54,173,43,23,41,077,31*7C
$GPGSV,4,2,13,02,39,278,,04,37,226,16,37,28,171,27,16,23,060,*75
$GPGSV,4,3,13,08,20,195,18,05,18,302,26,30,15,034,,20,10,132,*78
$GPGSV,4,4,13,29,07,340,*40
$GPRMC,070413.000,A,5325.7149,N,01433.8096,E,0.48,202.14,010612,,,A*6A
$GPVTG,202.14,T,,M,0.48,N,0.88,K,A*34
$GPGGA,070414.000,5325.7148,N,01433.8095,E,1,7,1.15,37.6,M,41.8,M,,*6D
$GPGSA,A,3,07,23,13,04,05,08,10,,,,,,1.44,1.15,0.87*05
$GPGSV,4,1,13,13,76,066,33,10,72,274,24,07,54,173,43,23,41,077,31*7C
$GPGSV,4,2,13,02,39,278,,04,37,226,16,37,28,171,27,16,23,060,*75
$GPGSV,4,3,13,08,20,195,18,05,18,302,26,30,15,034,,20,10,132,*78
$GPGSV,4,4,13,29,07,340,*40
$GPRMC,070414.000,A,5325.7148,N,01433.8095,E,0.45,198.68,010612,,,A*69
$GPVTG,198.68,T,,M,0.45,N,0.83,K,A*39
$GPGGA,070415.000,5325.7146,N,01433.8095,E,1,7,1.15,37.6,M,41.8,M,,*62
$GPGSA,A,3,07,23,13,04,05,08,10,,,,,,1.44,1.15,0.87*05
$GPGSV,4,1,13,13,76,066,33,10,72,274,24,07,54,173,43,23,41,077,30*7D
$GPGSV,4,2,13,02,39,278,,04,37,226,16,37,28,171,,16,23,060,*70
$GPGSV,4,3,13,08,20,195,18,05,18,302,26,30,15,034,,20,10,132,*78
$GPGSV,4,4,13,29,07,340,*40
$GPRMC,070415.000,A,5325.7146,N,01433.8095,E,0.45,197.98,010612,,,A*66
$GPVTG,197.98,T,,M,0.45,N,0.83,K,A*39
$GPGGA,070416.000,5325.7145,N,01433.8094,E,1,7,1.15,37.6,M,41.8,M,,*63
$GPGSA,A,3,07,23,13,04,05,08,10,,,,,,1.44,1.15,0.87*05
$GPGSV,4,1,13,13,76,066,33,10,72,274,25,07,54,173,43,23,41,077,30*7C
$GPGSV,4,2,13,02,39,278,,04,37,226,16,37,28,171,,16,23,060,*70
$GPGSV,4,3,13,08,20,195,18,05,18,302,26,30,15,034,,20,10,132,*78
$GPGSV,4,4,13,29,07,340,*40
$GPRMC,070416.000,A,5325.7145,N,01433.8094,E,0.57,198.86,010612,,,A*64
$GPVTG,198.86,T,,M,0.57,N,1.06,K,A*36
$GPGGA,070417.000,5325.7144,N,01433.8093,E,1,7,1.15,37.6,M,41.8,M,,*64
$GPGSA,A,3,07,23,13,04,05,08,10,,,,,,1.44,1.15,0.87*05
$GPGSV,4,1,13,13,76,066,33,10,72,274,25,07,54,173,43,23,41,077,29*74
$GPGSV,4,2,13,02,39,278,,04,37,226,16,37,28,171,,16,23,060,*70
$GPGSV,4,3,13,08,20,195,18,05,18,302,26,30,15,034,,20,10,132,*78
$GPGSV,4,4,13,29,07,340,*40
$GPRMC,070417.000,A,5325.7144,N,01433.8093,E,0.56,198.77,010612,,,A*6C
$GPVTG,198.77,T,,M,0.56,N,1.04,K,A*3B
$GPGGA,070418.000,5325.7142,N,01433.8092,E,1,7,1.15,37.6,M,41.8,M,,*6C
$GPGSA,A,3,07,23,13,04,05,08,10,,,,,,1.44,1.15,0.87*05
$GPGSV,4,1,13,13,76,066,33,10,72,274,25,07,54,173,43,23,41,077,29*74
$GPGSV,4,2,13,02,39,278,,04,37,226,16,37,28,171,,16,23,060,*70
$GPGSV,4,3,13,08,20,195,18,05,18,302,25,30,15,034,,20,10,132,*7B
$GPGSV,4,4,13,29,07,340,*40
$GPRMC,070418.000,A,5325.7142,N,01433.8092,E,0.68,197.83,010612,,,A*6D
$GPVTG,197.83,T,,M,0.68,N,1.27,K,A*33
$GPGGA,070419.000,5325.7142,N,01433.8090,E,1,7,1.15,37.3,M,41.8,M,,*6A
$GPGSA,A,3,07,23,13,04,05,08,10,,,,,,1.44,1.15,0.87*05
$GPGSV,4,1,13,13,76,066,33,10,72,274,26,07,54,173,43,23,41,077,29*77
$GPGSV,4,2,13,02,39,278,,04,37,226,16,37,28,171,,16,23,060,*70
$GPGSV,4,3,13,08,20,195,18,05,18,302,25,30,15,034,,20,10,132,*7B
$GPGSV,4,4,13,29,07,340,*40
$GPRMC,070419.000,A,5325.7142,N,01433.8090,E,0.69,197.75,010612,,,A*66
$GPVTG,197.75,T,,M,0.69,N,1.28,K,A*34
$GPGGA,070420.000,5325.7143,N,01433.8084,E,1,7,1.15,37.2,M,41.8,M,,*65
$GPGSA,A,3,07,23,13,04,05,08,10,,,,,,1.44,1.15,0.87*05
$GPGSV,4,1,13,13,76,066,33,10,72,274,26,07,54,173,43,23,41,077,29*77
$GPGSV,4,2,13,02,39,278,,04,37,226,16,37,28,171,,16,23,060,*70
$GPGSV,4,3,13,08,20,195,18,05,18,302,25,30,15,034,,20,10,132,*7B
$GPGSV,4,4,13,29,07,340,*40
$GPRMC,070420.000,A,5325.7143,N,01433.8084,E,0.71,200.95,010612,,,A*62
$GPVTG,200.95,T,,M,0.71,N,1.32,K,A*35
$GPGGA,070421.000,5325.7145,N,01433.8081,E,1,7,1.15,37.0,M,41.8,M,,*65
$GPGSA,A,3,07,23,13,04,05,08,10,,,,,,1.44,1.15,0.87*05
$GPGSV,4,1,13,13,76,066,33,10,72,274,26,07,54,173,43,23,41,077,29*77
$GPGSV,4,2,13,02,39,278,,04,36,225,16,37,28,171,,16,23,060,*72
$GPGSV,4,3,13,08,20,195,18,05,18,302,25,30,15,034,,20,10,132,*7B
$GPGSV,4,4,13,29,07,340,*40
$GPRMC,070421.000,A,5325.7145,N,01433.8081,E,0.72,203.86,010612,,,A*62
$GPVTG,203.86,T,,M,0.72,N,1.34,K,A*31
$GPGGA,070422.000,5325.7146,N,01433.8075,E,1,7,1.15,36.9,M,41.8,M,,*66
$GPGSA,A,3,07,23,13,04,05,08,10,,,,,,1.44,1.15,0.87*05
$GPGSV,4,1,13,13,76,066,33,10,72,274,26,07,54,173,43,23,41,077,29*77
$GPGSV,4,2,13,02,39,278,,04,36,225,16,39,27,167,,16,23,060,*74
$GPGSV,4,3,13,08,20,195,18,05,18,302,25,30,15,034,,20,10,132,*7B
$GPGSV,4,4,13,29,07,340,*40
$GPRMC,070422.000,A,5325.7146,N,01433.8075,E,0.67,207.11,010612,,,A*67
$GPVTG,207.11,T,,M,0.67,N,1.24,K,A*3E
$GPGGA,070423.000,5325.7143,N,01433.8071,E,1,7,1.15,36.8,M,41.8,M,,*67
$GPGSA,A,3,07,23,13,04,05,08,10,,,,,,1.44,1.15,0.87*05
$GPGSV,4,1,13,13,76,066,33,10,72,274,26,07,54,173,43,23,41,077,28*76
$GPGSV,4,2,13,02,39,278,,04,36,225,16,39,27,167,,16,23,060,*74
$GPGSV,4,3,13,08,20,195,18,05,18,302,25,30,15,034,,20,10,132,*7B
$GPGSV,4,4,13,29,07,340,*40
$GPRMC,070423.000,A,5325.7143,N,01433.8071,E,0.70,208.51,010612,,,A*6A
$GPVTG,208.51,T,,M,0.70,N,1.30,K,A*36
$GPGGA,070424.000,5325.7144,N,01433.8067,E,1,7,1.15,36.7,M,41.8,M,,*6F
$GPGSA,A,3,07,23,13,04,05,08,10,,,,,,1.44,1.15,0.87*05
$GPGSV,4,1,13,13,76,066,33,10,72,274,26,07,55,173,43,23,41,077,28*77
$GPGSV,4,2,13,02,39,278,,04,36,225,16,39,27,167,,16,23,060,*74
$GPGSV,4,3,13,08,20,195,17,05,18,302,25,30,15,034,,20,10,132,*74
$GPGSV,4,4,13,29,07,340,*40
$GPRMC,070424.000,A,5325.7144,N,01433.8067,E,0.67,209.10,010612,,,A*6F
$GPVTG,209.10,T,,M,0.67,N,1.25,K,A*30
$GPGGA,070425.000,5325.7145,N,01433.8062,E,1,7,1.15,36.7,M,41.8,M,,*6A
$GPGSA,A,3,07,23,13,04,05,08,10,,,,,,1.44,1.15,0.87*05
$GPGSV,4,1,13,13,76,066,33,10,72,274,26,07,55,173,43,23,41,077,28*77
$GPGSV,4,2,13,02,39,278,,04,36,225,16,39,27,167,,16,23,060,*74
$GPGSV,4,3,13,08,20,195,17,05,18,302,25,30,15,034,,20,10,132,*74
$GPGSV,4,4,13,29,07,340,*40
$GPRMC,070425.000,A,5325.7145,N,01433.8062,E,0.53,211.63,010612,,,A*60
$GPVTG,211.63,T,,M,0.53,N,0.98,K,A*3D
$GPGGA,070426.000,5325.7145,N,01433.8055,E,1,7,1.15,36.5,M,41.8,M,,*6F
$GPGSA,A,3,07,23,13,04,05,08,10,,,,,,1.44,1.15,0.87*05
$GPGSV,4,1,13,13,76,066,33,10,72,274,26,07,55,173,43,23,41,077,28*77
$GPGSV,4,2,13,02,39,278,,04,36,225,16,39,27,167,,16,23,060,*74
$GPGSV,4,3,13,08,20,195,17,05,18,302,25,30,15,034,,20,10,132,*74
$GPGSV,4,4,13,29,07,340,*40
$GPRMC,070426.000,A,5325.7145,N,01433.8055,E,0.60,214.64,010612,,,A*65
$GPVTG,214.64,T,,M,0.60,N,1.11,K,A*3F
$GPGGA,070427.000,5325.7145,N,01433.8049,E,1,7,1.15,36.3,M,41.8,M,,*65
$GPGSA,A,3,07,23,13,04,05,08,10,,,,,,1.44,1.15,0.87*05
$GPGSV,4,1,13,13,76,066,33,10,72,273,26,07,55,173,43,23,41,077,28*70
$GPGSV,4,2,13,02,39,278,,04,36,225,16,39,27,167,,16,23,060,*74
$GPGSV,4,3,13,08,20,195,17,05,18,302,25,30,15,034,,20,10,132,*74
$GPGSV,4,4,13,29,07,340,*40
$GPRMC,070427.000,A,5325.7145,N,01433.8049,E,0.59,217.07,010612,,,A*65
$GPVTG,217.07,T,,M,0.59,N,1.10,K,A*32
$GPGGA,070428.000,5325.7143,N,01433.8045,E,1,7,1.15,36.1,M,41.8,M,,*62
$GPGSA,A,3,07,23,13,04,05,08,10,,,,,,1.44,1.15,0.87*05
$GPGSV,4,1,13,13,76,066,33,10,72,273,25,07,55,173,43,23,41,077,28*73
$GPGSV,4,2,13,02,39,278,,04,36,225,16,39,27,167,,16,23,060,*74
$GPGSV,4,3,13,08,20,195,17,05,18,302,25,30,15,034,,20,10,132,*74
$GPGSV,4,4,13,29,07,340,*40
$GPRMC,070428.000,A,5325.7143,N,01433.8045,E,0.67,214.41,010612,,,A*6C
$GPVTG,214.41,T,,M,0.67,N,1.24,K,A*39
$GPGGA,070429.000,5325.7143,N,01433.8042,E,1,7,1.15,36.1,M,41.8,M,,*64
$GPGSA,A,3,07,23,13,04,05,08,10,,,,,,1.44,1.15,0.87*05
$GPGSV,4,1,13,13,76,066,33,10,72,273,25,07,55,173,43,23,41,077,28*73
$GPGSV,4,2,13,02,39,278,,04,36,225,16,39,27,167,,16,23,060,*74
$GPGSV,4,3,13,08,20,195,17,05,18,302,25,30,15,034,,20,10,132,*74
$GPGSV,4,4,13,29,07,340,*40
$GPRMC,070429.000,A,5325.7143,N,01433.8042,E,0.64,212.46,010612,,,A*68
$GPVTG,212.46,T,,M,0.64,N,1.19,K,A*35
$GPGGA,070430.000,5325.7142,N,01433.8041,E,1,7,1.15,35.9,M,41.8,M,,*65
$GPGSA,A,3,07,23,13,04,05,08,10,,,,,,1.44,1.15,0.87*05
$GPGSV,4,1,13,13,76,066,33,10,72,273,25,07,55,173,43,23,41,077,28*73
$GPGSV,4,2,13,02,39,278,,04,36,225,16,39,27,167,,16,23,060,*74
$GPGSV,4,3,13,08,20,195,17,05,18,302,25,30,15,034,,20,10,132,*74
$GPGSV,4,4,13,29,07,340,*40
$GPRMC,070430.000,A,5325.7142,N,01433.8041,E,0.57,209.09,010612,,,A*63
$GPVTG,209.09,T,,M,0.57,N,1.05,K,A*39
$GPGGA,070431.000,5325.7141,N,01433.8039,E,1,7,1.15,35.9,M,41.8,M,,*68
$GPGSA,A,3,07,23,13,04,05,08,10,,,,,,1.44,1.15,0.87*05
$GPGSV,4,1,13,13,76,066,32,10,72,273,24,07,55,173,43,23,41,077,28*73
$GPGSV,4,2,13,02,39,278,,04,36,225,17,39,27,167,,16,23,060,*75
$GPGSV,4,3,13,08,20,195,17,05,18,302,25,30,15,034,,20,10,132,*74
$GPGSV,4,4,13,29,07,340,*40
$GPRMC,070431.000,A,5325.7141,N,01433.8039,E,0.49,207.79,010612,,,A*68
$GPVTG,207.79,T,,M,0.49,N,0.91,K,A*33
$GPGGA,070432.000,5325.7143,N,01433.8036,E,1,7,1.15,35.7,M,41.8,M,,*68
$GPGSA,A,3,07,23,13,04,05,08,10,,,,,,1.44,1.15,0.87*05
$GPGSV,4,1,13,13,76,066,32,10,72,273,24,07,55,173,43,23,41,077,27*7C
$GPGSV,4,2,13,02,39,278,,04,36,225,17,39,27,167,,16,23,060,*75
$GPGSV,4,3,13,08,20,195,17,05,18,302,25,30,15,034,,20,10,132,*74
$GPGSV,4,4,13,29,07,340,*40
$GPRMC,070432.000,A,5325.7143,N,01433.8036,E,0.42,207.40,010612,,,A*67
$GPVTG,207.40,T,,M,0.42,N,0.77,K,A*3A
$GPGGA,070433.000,5325.7142,N,01433.8033,E,1,7,1.15,35.6,M,41.8,M,,*6C
$GPGSA,A,3,07,23,13,04,05,08,10,,,,,,1.44,1.15,0.87*05
$GPGSV,4,1,13,13,76,066,32,10,72,273,24,07,55,173,43,23,41,077,27*7C
$GPGSV,4,2,13,02,39,278,,04,36,225,17,39,27,167,,16,23,060,*75
$GPGSV,4,3,13,08,20,195,17,05,18,302,25,30,15,034,,20,10,132,*74
$GPGSV,4,4,13,29,07,340,*40
$GPRMC,070433.000,A,5325.7142,N,01433.8033,E,0.50,205.96,010612,,,A*68
$GPVTG,205.96,T,,M,0.50,N,0.92,K,A*3B
$GPGGA,070434.000,5325.7141,N,01433.8032,E,1,7,1.15,35.6,M,41.8,M,,*69
$GPGSA,A,3,07,23,13,04,05,08,10,,,,,,1.44,1.15,0.87*05
$GPGSV,4,1,13,13,76,066,32,10,72,273,24,07,55,173,43,23,41,077,27*7C
$GPGSV,4,2,13,02,39,278,,04,36,225,17,39,27,167,,16,23,060,*75
$GPGSV,4,3,13,08,20,195,17,05,18,302,24,30,15,034,,20,10,132,*75
$GPGSV,4,4,13,29,07,340,*40
$GPRMC,070434.000,A,5325.7141,N,01433.8032,E,0.48,206.26,010612,,,A*6C
$GPVTG,206.26,T,,M,0.48,N,0.90,K,A*38
$GPGGA,070435.000,5325.7140,N,01433.8031,E,1,7,1.15,35.6,M,41.8,M,,*6A
$GPGSA,A,3,07,23,13,04,05,08,10,,,,,,1.44,1.15,0.87*05
$GPGSV,4,1,13,13,76,066,32,10,72,273,23,07,55,173,43,23,41,077,27*7B
$GPGSV,4,2,13,02,39,278,,04,36,225,17,16,23,060,,33,22,215,*7C
$GPGSV,4,3,13,08,20,195,17,05,18,302,23,30,15,034,,20,10,132,*72
$GPGSV,4,4,13,29,07,340,*40
$GPRMC,070435.000,A,5325.7140,N,01433.8031,E,0.62,209.97,010612,,,A*62
$GPVTG,209.97,T,,M,0.62,N,1.15,K,A*39
